{"type": "FeatureCollection", "features": [{"geometry": {"type": "Point", "coordinates": [-122.41942, 37.77493]}, "type": "Feature", "properties": {"jobTitle": "Data Analytics Engineer at Sharethrough (San Francisco, CA)", "link": "http://careers.stackoverflow.com/jobs/55843/data-analytics-engineer-sharethrough", "location": "San Francisco, CA", "hiringOrganization": "Sharethrough"}}, {"geometry": {"type": "Point", "coordinates": [-87.65005, 41.85003]}, "type": "Feature", "properties": {"jobTitle": "Lead Software Engineer for the NIH/NCI Genomic Data Commons Project at The University of Chicago, Center for Data Intensive Science (Chicago, IL)", "link": "http://careers.stackoverflow.com/jobs/92579/lead-software-engineer-for-the-nih-nci-genomic-the-university-of-chicago", "location": "Chicago, IL", "hiringOrganization": "The University of Chicago, Center for Data Intensive Science"}}, {"geometry": {"type": "Point", "coordinates": [4.29861, 52.07667]}, "type": "Feature", "properties": {"jobTitle": "(Big) Data Engineer at KPN (The Hague, Netherlands)", "link": "http://careers.stackoverflow.com/jobs/96770/big-data-engineer-kpn", "location": "The Hague, Netherlands", "hiringOrganization": "KPN"}}, {"geometry": {"type": "Point", "coordinates": [-74.17237, 40.73566]}, "type": "Feature", "properties": {"jobTitle": "Big Data Solutions Engineer at Prudential (Newark, NJ)", "link": "http://careers.stackoverflow.com/jobs/95502/big-data-solutions-engineer-prudential", "location": "Newark, NJ", "hiringOrganization": "Prudential"}}, {"geometry": {"type": "Point", "coordinates": [7.43333, 46.93333]}, "type": "Feature", "properties": {"jobTitle": "Big Data Software Engineer 80-100% at Swisscom AG (Liebefeld, Schweiz)", "link": "http://careers.stackoverflow.com/jobs/96114/big-data-software-engineer-80-100-swisscom-ag", "location": "Liebefeld, Schweiz", "hiringOrganization": "Swisscom AG"}}, {"geometry": {"type": "Point", "coordinates": [10.01534, 53.57532]}, "type": "Feature", "properties": {"jobTitle": "Software Developers for Back- & Frontend at Maritime Data Systems GmbH (Hamburg, Deutschland)", "link": "http://careers.stackoverflow.com/jobs/95802/software-developers-for-back-frontend-maritime-data-systems-gmbh", "location": "Hamburg, Deutschland", "hiringOrganization": "Maritime Data Systems GmbH"}}, {"geometry": {"type": "Point", "coordinates": [-118.24368, 34.05223]}, "type": "Feature", "properties": {"jobTitle": "Software Engineer (Full-stack) at Factual (Los Angeles, CA)", "link": "http://careers.stackoverflow.com/jobs/83710/software-engineer-full-stack-factual", "location": "Los Angeles, CA", "hiringOrganization": "Factual"}}, {"geometry": {"type": "Point", "coordinates": [-122.0308, 36.97412]}, "type": "Feature", "properties": {"jobTitle": "Senior Front-End Engineer at Looker Data Sciences (Santa Cruz, CA)", "link": "http://careers.stackoverflow.com/jobs/87274/senior-front-end-engineer-looker-data-sciences", "location": "Santa Cruz, CA", "hiringOrganization": "Looker Data Sciences"}}, {"geometry": {"type": "Point", "coordinates": [-71.05977, 42.35843]}, "type": "Feature", "properties": {"jobTitle": "Data Scientist/Machine Learning Engineer at Mitra Capital LLC (Boston, MA)", "link": "http://careers.stackoverflow.com/jobs/85396/data-scientist-machine-learning-engineer-mitra-capital-llc", "location": "Boston, MA", "hiringOrganization": "Mitra Capital LLC"}}, {"geometry": {"type": "Point", "coordinates": [-87.65005, 41.85003]}, "type": "Feature", "properties": {"jobTitle": "Senior Engineer at HERE-Chicago (Chicago, IL)", "link": "http://careers.stackoverflow.com/jobs/96623/senior-engineer-here-chicago", "location": "Chicago, IL", "hiringOrganization": "HERE-Chicago"}}, {"geometry": {"type": "Point", "coordinates": [-118.24368, 34.05223]}, "type": "Feature", "properties": {"jobTitle": "Senior Salesforce Administrator at BuildSavings (Los Angeles, CA)", "link": "http://careers.stackoverflow.com/jobs/94972/senior-salesforce-administrator-buildsavings", "location": "Los Angeles, CA", "hiringOrganization": "BuildSavings"}}, {"geometry": {"type": "Point", "coordinates": [-118.24368, 34.05223]}, "type": "Feature", "properties": {"jobTitle": "Lead Salesforce Developer at BuildSavings (Los Angeles, CA)", "link": "http://careers.stackoverflow.com/jobs/94971/lead-salesforce-developer-buildsavings", "location": "Los Angeles, CA", "hiringOrganization": "BuildSavings"}}, {"geometry": {"type": "Point", "coordinates": [13.41053, 52.52437]}, "type": "Feature", "properties": {"jobTitle": "Data Engineer (m/f) at Project A Ventures (Berlin, Germany)", "link": "http://careers.stackoverflow.com/jobs/87106/data-engineer-m-f-project-a-ventures", "location": "Berlin, Germany", "hiringOrganization": "Project A Ventures"}}, {"geometry": {"type": "Point", "coordinates": [-71.10561, 42.3751]}, "type": "Feature", "properties": {"jobTitle": "Data Analyst at MillimanMAX (Cambridge, MA)", "link": "http://careers.stackoverflow.com/jobs/95585/data-analyst-millimanmax", "location": "Cambridge, MA", "hiringOrganization": "MillimanMAX"}}, {"geometry": {"type": "Point", "coordinates": [-4.69099, 54.22209]}, "type": "Feature", "properties": {"jobTitle": "Data Services Specialist at New York University - Division of Libraries (NY, NY)", "link": "http://careers.stackoverflow.com/jobs/96816/data-services-specialist-new-york-university", "location": "NY, NY", "hiringOrganization": "New York University - Division of Libraries"}}, {"geometry": {"type": "Point", "coordinates": [4.29861, 52.07667]}, "type": "Feature", "properties": {"jobTitle": "Data scientist at Rijksoverheid (The Hague, Netherlands)", "link": "http://careers.stackoverflow.com/jobs/96540/data-scientist-rijksoverheid", "location": "The Hague, Netherlands", "hiringOrganization": "Rijksoverheid"}}, {"geometry": {"type": "Point", "coordinates": [-122.41942, 37.77493]}, "type": "Feature", "properties": {"jobTitle": "Data Services Engineer at Discovery Digital Networks (San Francisco, CA)", "link": "http://careers.stackoverflow.com/jobs/96830/data-services-engineer-discovery-digital-networks", "location": "San Francisco, CA", "hiringOrganization": "Discovery Digital Networks"}}, {"geometry": {"type": "Point", "coordinates": [-118.24368, 34.05223]}, "type": "Feature", "properties": {"jobTitle": "Senior Salesforce Administrator / Developer at BuildSavings (Los Angeles, CA)", "link": "http://careers.stackoverflow.com/jobs/94970/senior-salesforce-administrator-developer-buildsavings", "location": "Los Angeles, CA", "hiringOrganization": "BuildSavings"}}, {"geometry": {"type": "Point", "coordinates": [-4.69099, 54.22209]}, "type": "Feature", "properties": {"jobTitle": "Software Engineer In Data at Dataminr (NY, NY)", "link": "http://careers.stackoverflow.com/jobs/16119/software-engineer-in-data-dataminr", "location": "NY, NY", "hiringOrganization": "Dataminr"}}, {"geometry": {"type": "Point", "coordinates": [-73.92097, 41.70037]}, "type": "Feature", "properties": {"jobTitle": "Data Analytics Specialist at Marist College (Poughkeepsie, NY)", "link": "http://careers.stackoverflow.com/jobs/95428/data-analytics-specialist-marist-college", "location": "Poughkeepsie, NY", "hiringOrganization": "Marist College"}}, {"geometry": {"type": "Point", "coordinates": [-122.41942, 37.77493]}, "type": "Feature", "properties": {"jobTitle": "Data DevOps Engineer at Rally Health (San Francisco, CA)", "link": "http://careers.stackoverflow.com/jobs/90933/data-devops-engineer-rally-health", "location": "San Francisco, CA", "hiringOrganization": "Rally Health"}}, {"geometry": {"type": "Point", "coordinates": [0.11667, 52.2]}, "type": "Feature", "properties": {"jobTitle": "Engineering Systems Data Engineer at ARM Ltd (Cambridge, UK)", "link": "http://careers.stackoverflow.com/jobs/94342/engineering-systems-data-engineer-arm-ltd", "location": "Cambridge, UK", "hiringOrganization": "ARM Ltd"}}, {"geometry": {"type": "Point", "coordinates": [7.43333, 46.93333]}, "type": "Feature", "properties": {"jobTitle": "Data Scientist at Swisscom AG (Liebefeld, Schweiz)", "link": "http://careers.stackoverflow.com/jobs/96630/data-scientist-swisscom-ag", "location": "Liebefeld, Schweiz", "hiringOrganization": "Swisscom AG"}}, {"geometry": {"type": "Point", "coordinates": [-2.35622, 49.43331]}, "type": "Feature", "properties": {"jobTitle": "Database Programmer and Developer at University of Oxford (UK)", "link": "http://careers.stackoverflow.com/jobs/96852/database-programmer-and-developer-university-of-oxford", "location": "UK", "hiringOrganization": "University of Oxford"}}, {"geometry": {"type": "Point", "coordinates": [-122.41942, 37.77493]}, "type": "Feature", "properties": {"jobTitle": "Principal Software Engineer - Data Products at Twilio (San Francisco, CA)", "link": "http://careers.stackoverflow.com/jobs/90959/principal-software-engineer-data-products-twilio", "location": "San Francisco, CA", "hiringOrganization": "Twilio"}}, {"geometry": {"type": "Point", "coordinates": [10.01534, 53.57532]}, "type": "Feature", "properties": {"jobTitle": "Senior Backend Engineer at Metrigo Gmbh (Zalando SE) (Hamburg, Germany)", "link": "http://careers.stackoverflow.com/jobs/93573/senior-backend-engineer-metrigo-gmbh-zalando-se", "location": "Hamburg, Germany", "hiringOrganization": "Metrigo Gmbh (Zalando SE)"}}, {"geometry": {"type": "Point", "coordinates": [-0.12574, 51.50853]}, "type": "Feature", "properties": {"jobTitle": "Senior Software Engineer - Machine Learning at Quantcast (London, UK)", "link": "http://careers.stackoverflow.com/jobs/93378/senior-software-engineer-machine-learning-quantcast", "location": "London, UK", "hiringOrganization": "Quantcast"}}, {"geometry": {"type": "Point", "coordinates": [13.41053, 52.52437]}, "type": "Feature", "properties": {"jobTitle": "Big Data Processing Expert at Swarm64 AS Zweigstelle Hive (Berlin, Deutschland)", "link": "http://careers.stackoverflow.com/jobs/95407/big-data-processing-expert-swarm64-as-zweigstelle-hive", "location": "Berlin, Deutschland", "hiringOrganization": "Swarm64 AS Zweigstelle Hive"}}, {"geometry": {"type": "Point", "coordinates": [-76.61219, 39.29038]}, "type": "Feature", "properties": {"jobTitle": "Data Scientist @ Cloud-Based Behavioral Analytics Software Company at RedOwl (Baltimore, MD)", "link": "http://careers.stackoverflow.com/jobs/92845/data-scientist-cloud-based-behavioral-analytics-redowl", "location": "Baltimore, MD", "hiringOrganization": "RedOwl"}}, {"geometry": {"type": "Point", "coordinates": [-122.33207, 47.60621]}, "type": "Feature", "properties": {"jobTitle": "Senior Software Engineer- Security Platform Owner at Amazon (Seattle, WA)", "link": "http://careers.stackoverflow.com/jobs/96693/senior-software-engineer-security-platform-owner-amazon", "location": "Seattle, WA", "hiringOrganization": "Amazon"}}, {"geometry": {"type": "Point", "coordinates": [-118.24368, 34.05223]}, "type": "Feature", "properties": {"jobTitle": "Help Desk/Junior Systems Engineer at Factual (Los Angeles, CA)", "link": "http://careers.stackoverflow.com/jobs/95044/help-desk-junior-systems-engineer-factual", "location": "Los Angeles, CA", "hiringOrganization": "Factual"}}, {"geometry": {"type": "Point", "coordinates": [-118.24368, 34.05223]}, "type": "Feature", "properties": {"jobTitle": "Big Data Engineers at Betsson Group (Ta' Xbiex, Malta)", "link": "http://careers.stackoverflow.com/jobs/71950/big-data-engineers-betsson-group", "location": "Ta' Xbiex, Malta", "hiringOrganization": "Betsson Group"}}, {"geometry": {"type": "Point", "coordinates": [-71.05977, 42.35843]}, "type": "Feature", "properties": {"jobTitle": "Software Architect at RBM Technologies (Boston, MA)", "link": "http://careers.stackoverflow.com/jobs/95873/software-architect-rbm-technologies", "location": "Boston, MA", "hiringOrganization": "RBM Technologies"}}, {"geometry": {"type": "Point", "coordinates": [-117.15726, 32.71533]}, "type": "Feature", "properties": {"jobTitle": "Senior Front End Developer  Pioneering Business Forecasts at Intensity (San Diego, CA)", "link": "http://careers.stackoverflow.com/jobs/96524/senior-front-end-developer-pioneering-business-intensity", "location": "San Diego, CA", "hiringOrganization": "Intensity"}}, {"geometry": {"type": "Point", "coordinates": [-0.12574, 51.50853]}, "type": "Feature", "properties": {"jobTitle": "Senior Engineering Manager - Machine Learning at Quantcast (London, UK)", "link": "http://careers.stackoverflow.com/jobs/91481/senior-engineering-manager-machine-learning-quantcast", "location": "London, UK", "hiringOrganization": "Quantcast"}}, {"geometry": {"type": "Point", "coordinates": [-71.10561, 42.3751]}, "type": "Feature", "properties": {"jobTitle": "Machine Learning Engineer at Sense Labs (Cambridge, MA)", "link": "http://careers.stackoverflow.com/jobs/90125/machine-learning-engineer-sense-labs", "location": "Cambridge, MA", "hiringOrganization": "Sense Labs"}}, {"geometry": {"type": "Point", "coordinates": [13.41053, 52.52437]}, "type": "Feature", "properties": {"jobTitle": "Senior Software Engineer - Data Services at HelloFresh (Berlin, Germany)", "link": "http://careers.stackoverflow.com/jobs/95402/senior-software-engineer-data-services-hellofresh", "location": "Berlin, Germany", "hiringOrganization": "HelloFresh"}}, {"geometry": {"type": "Point", "coordinates": [-0.12574, 51.50853]}, "type": "Feature", "properties": {"jobTitle": "Big Data Developer - Contract at Hotels.com (London, UK)", "link": "http://careers.stackoverflow.com/jobs/93473/big-data-developer-contract-hotelscom", "location": "London, UK", "hiringOrganization": "Hotels.com"}}, {"geometry": {"type": "Point", "coordinates": [13.41053, 52.52437]}, "type": "Feature", "properties": {"jobTitle": "Big Data Architect at HelloFresh (Berlin, Germany)", "link": "http://careers.stackoverflow.com/jobs/92274/big-data-architect-hellofresh", "location": "Berlin, Germany", "hiringOrganization": "HelloFresh"}}, {"geometry": {"type": "Point", "coordinates": [-122.41942, 37.77493]}, "type": "Feature", "properties": {"jobTitle": "Senior Software Engineer  Test at Quid (San Francisco, CA)", "link": "http://careers.stackoverflow.com/jobs/90656/senior-software-engineer-test-quid", "location": "San Francisco, CA", "hiringOrganization": "Quid"}}, {"geometry": {"type": "Point", "coordinates": [-0.12574, 51.50853]}, "type": "Feature", "properties": {"jobTitle": "Software Development Engineer - Big Data at Hotels.com (London, UK)", "link": "http://careers.stackoverflow.com/jobs/93457/software-development-engineer-big-data-hotelscom", "location": "London, UK", "hiringOrganization": "Hotels.com"}}, {"geometry": {"type": "Point", "coordinates": [-0.12574, 51.50853]}, "type": "Feature", "properties": {"jobTitle": "Digital Team Leader at SCL Group (London, UK)", "link": "http://careers.stackoverflow.com/jobs/90592/digital-team-leader-scl-group", "location": "London, UK", "hiringOrganization": "SCL Group"}}, {"geometry": {"type": "Point", "coordinates": [-80.84313, 35.22709]}, "type": "Feature", "properties": {"jobTitle": "Senior Software Engineer at Premier, Inc. (Charlotte, NC)", "link": "http://careers.stackoverflow.com/jobs/90654/senior-software-engineer-premier-inc", "location": "Charlotte, NC", "hiringOrganization": "Premier, Inc."}}, {"geometry": {"type": "Point", "coordinates": [-4.69099, 54.22209]}, "type": "Feature", "properties": {"jobTitle": "Software Engineer - ElasticSearch / Data Processing at Tenable Network Security (NY, NY) (allows remote)", "link": "http://careers.stackoverflow.com/jobs/71600/software-engineer-elasticsearch-data-tenable-network-security", "location": "NY, NY", "hiringOrganization": "Tenable Network Security"}}, {"geometry": {"type": "Point", "coordinates": [-77.03637, 38.89511]}, "type": "Feature", "properties": {"jobTitle": "Front-End JavaScript Engineer @ high-growth DC startup FiscalNote at FiscalNote, Inc. (Washington, DC) (allows remote)", "link": "http://careers.stackoverflow.com/jobs/77067/front-end-javascript-engineer-high-growth-dc-fiscalnote-inc", "location": "Washington, DC", "hiringOrganization": "FiscalNote, Inc."}}, {"geometry": {"type": "Point", "coordinates": [-74.00597, 40.71427]}, "type": "Feature", "properties": {"jobTitle": "Computer Science Trainer at Bloomberg LP (New York, NY)", "link": "http://careers.stackoverflow.com/jobs/91831/computer-science-trainer-bloomberg-lp", "location": "New York, NY", "hiringOrganization": "Bloomberg LP"}}, {"geometry": {"type": "Point", "coordinates": [0.18198, 52.08529]}, "type": "Feature", "properties": {"jobTitle": "Software Engineer (Java) at EMBL-EBI (Hinxton, UK)", "link": "http://careers.stackoverflow.com/jobs/96763/software-engineer-java-embl-ebi", "location": "Hinxton, UK", "hiringOrganization": "EMBL-EBI"}}, {"geometry": {"type": "Point", "coordinates": [-71.10561, 42.3751]}, "type": "Feature", "properties": {"jobTitle": "Data Warehouse and Database Architects at MillimanMAX (Cambridge, MA)", "link": "http://careers.stackoverflow.com/jobs/90921/data-warehouse-and-database-architects-millimanmax", "location": "Cambridge, MA", "hiringOrganization": "MillimanMAX"}}, {"geometry": {"type": "Point", "coordinates": [0.11667, 52.2]}, "type": "Feature", "properties": {"jobTitle": "System Adminstrator (Linux) at EMBL-EBI (Cambridge, UK)", "link": "http://careers.stackoverflow.com/jobs/94622/system-adminstrator-linux-embl-ebi", "location": "Cambridge, UK", "hiringOrganization": "EMBL-EBI"}}, {"geometry": {"type": "Point", "coordinates": [0.11667, 52.2]}, "type": "Feature", "properties": {"jobTitle": "PHP Developer at OnePlus (, )", "link": "http://careers.stackoverflow.com/jobs/89437/php-developer-oneplus", "location": "\u00e6\u00b7\u00b1\u00e5\u0153\u00b3, \u00e4\u00b8\u00ad\u00e5\u203a\u00bd", "hiringOrganization": "OnePlus"}}, {"geometry": {"type": "Point", "coordinates": [-71.20922, 42.33704]}, "type": "Feature", "properties": {"jobTitle": "Chief Technology Officer at First Help Financial (Newton, MA)", "link": "http://careers.stackoverflow.com/jobs/93320/chief-technology-officer-first-help-financial", "location": "Newton, MA", "hiringOrganization": "First Help Financial"}}, {"geometry": {"type": "Point", "coordinates": [-79.4163, 43.70011]}, "type": "Feature", "properties": {"jobTitle": "Jasper Reports Developer at Computer Methods International Corp. (Toronto, ON, Canada)", "link": "http://careers.stackoverflow.com/jobs/95291/jasper-reports-developer-computer-methods", "location": "Toronto, ON, Canada", "hiringOrganization": "Computer Methods International Corp."}}, {"geometry": {"type": "Point", "coordinates": [114.0683, 22.54554]}, "type": "Feature", "properties": {"jobTitle": "ROM Engineering Manager at OnePlus (Shenzhen, China)", "link": "http://careers.stackoverflow.com/jobs/88307/rom-engineering-manager-oneplus", "location": "Shenzhen, China", "hiringOrganization": "OnePlus"}}, {"geometry": {"type": "Point", "coordinates": [-74.65905, 40.34872]}, "type": "Feature", "properties": {"jobTitle": "Contributed Pricing Software Developer - Javascript / Python / C++ at Bloomberg LP (Princeton, NJ)", "link": "http://careers.stackoverflow.com/jobs/91853/contributed-pricing-software-developer-bloomberg-lp", "location": "Princeton, NJ", "hiringOrganization": "Bloomberg LP"}}, {"geometry": {"type": "Point", "coordinates": [-75.30326, 41.64873]}, "type": "Feature", "properties": {"jobTitle": "Implementation Developer at Stevens Capital Management LP (Wayne, PA)", "link": "http://careers.stackoverflow.com/jobs/84011/implementation-developer-stevens-capital-management-lp", "location": "Wayne, PA", "hiringOrganization": "Stevens Capital Management LP"}}, {"geometry": {"type": "Point", "coordinates": [-74.00597, 40.71427]}, "type": "Feature", "properties": {"jobTitle": "Backend Engineer at x.ai (New York, NY)", "link": "http://careers.stackoverflow.com/jobs/91328/backend-engineer-xai", "location": "New York, NY", "hiringOrganization": "x.ai"}}, {"geometry": {"type": "Point", "coordinates": [-0.55893, 51.31903]}, "type": "Feature", "properties": {"jobTitle": "Front End Software Engineer at McLaren Applied Technologies (Woking, UK)", "link": "http://careers.stackoverflow.com/jobs/66687/front-end-software-engineer-mclaren-applied-technologies", "location": "Woking, UK", "hiringOrganization": "McLaren Applied Technologies"}}, {"geometry": {"type": "Point", "coordinates": [13.41053, 52.52437]}, "type": "Feature", "properties": {"jobTitle": "Backend Developer C++ (m/w) at CeleraOne GmbH (Berlin, Germany)", "link": "http://careers.stackoverflow.com/jobs/31780/backend-developer-c-plus-plus-m-w-celeraone-gmbh", "location": "Berlin, Germany", "hiringOrganization": "CeleraOne GmbH"}}, {"geometry": {"type": "Point", "coordinates": [-74.00597, 40.71427]}, "type": "Feature", "properties": {"jobTitle": "Data Engineer at Essence (New York, NY)", "link": "http://careers.stackoverflow.com/jobs/95941/data-engineer-essence", "location": "New York, NY", "hiringOrganization": "Essence"}}, {"geometry": {"type": "Point", "coordinates": [-122.41942, 37.77493]}, "type": "Feature", "properties": {"jobTitle": "Senior Software Engineer at ALTX (San Francisco, CA)", "link": "http://careers.stackoverflow.com/jobs/95337/senior-software-engineer-altx", "location": "San Francisco, CA", "hiringOrganization": "ALTX"}}, {"geometry": {"type": "Point", "coordinates": [4.88969, 52.37403]}, "type": "Feature", "properties": {"jobTitle": "Senior Machine Learning Scientist, Personalization at Booking.com (Amsterdam, Netherlands)", "link": "http://careers.stackoverflow.com/jobs/85673/senior-machine-learning-scientist-personalization-bookingcom", "location": "Amsterdam, Netherlands", "hiringOrganization": "Booking.com"}}, {"geometry": {"type": "Point", "coordinates": [-0.12574, 51.50853]}, "type": "Feature", "properties": {"jobTitle": "Android Software engineer at Peak (London, UK)", "link": "http://careers.stackoverflow.com/jobs/94847/android-software-engineer-peak", "location": "London, UK", "hiringOrganization": "Peak"}}, {"geometry": {"type": "Point", "coordinates": [-4.69099, 54.22209]}, "type": "Feature", "properties": {"jobTitle": "Software Engineer Platform at Dataminr (NY, NY)", "link": "http://careers.stackoverflow.com/jobs/18663/software-engineer-platform-dataminr", "location": "NY, NY", "hiringOrganization": "Dataminr"}}, {"geometry": {"type": "Point", "coordinates": [-74.00597, 40.71427]}, "type": "Feature", "properties": {"jobTitle": "Senior Big Data / Cloud Architect - Bloomberg Vault at Bloomberg LP (New York, NY)", "link": "http://careers.stackoverflow.com/jobs/91816/senior-big-data-cloud-architect-bloomberg-bloomberg-lp", "location": "New York, NY", "hiringOrganization": "Bloomberg LP"}}, {"geometry": {"type": "Point", "coordinates": [149.13569, -35.27078]}, "type": "Feature", "properties": {"jobTitle": "Algorithm Performance Lead Engineer at Seeing Machines Limited (Braddon, Australia)", "link": "http://careers.stackoverflow.com/jobs/94629/algorithm-performance-lead-engineer-seeing-machines-limited", "location": "Braddon, Australia", "hiringOrganization": "Seeing Machines Limited"}}, {"geometry": {"type": "Point", "coordinates": [-0.12574, 51.50853]}, "type": "Feature", "properties": {"jobTitle": "Machine Learning Engineer at import.io (London, UK)", "link": "http://careers.stackoverflow.com/jobs/96557/machine-learning-engineer-importio", "location": "London, UK", "hiringOrganization": "import.io"}}, {"geometry": {"type": "Point", "coordinates": [-0.12574, 51.50853]}, "type": "Feature", "properties": {"jobTitle": "Senior Front-End Engineer at Synthace Ltd. (London, UK)", "link": "http://careers.stackoverflow.com/jobs/95946/senior-front-end-engineer-synthace-ltd", "location": "London, UK", "hiringOrganization": "Synthace Ltd."}}, {"geometry": {"type": "Point", "coordinates": [-122.41942, 37.77493]}, "type": "Feature", "properties": {"jobTitle": "Sr. Software Defined Networking Engineer at Twilio (San Francisco, CA)", "link": "http://careers.stackoverflow.com/jobs/93092/sr-software-defined-networking-engineer-twilio", "location": "San Francisco, CA", "hiringOrganization": "Twilio"}}, {"geometry": {"type": "Point", "coordinates": [-112.52631, 37.04749]}, "type": "Feature", "properties": {"jobTitle": "Business Intelligence Software Engineer at Best Friends Animal Society (Kanab, UT) (allows remote)", "link": "http://careers.stackoverflow.com/jobs/92081/business-intelligence-software-engineer-best-friends-animal-society", "location": "Kanab, UT", "hiringOrganization": "Best Friends Animal Society"}}, {"geometry": {"type": "Point", "coordinates": [-97.51643, 35.46756]}, "type": "Feature", "properties": {"jobTitle": "Software Developer - Front-end, Data Visualization at Exaptive (Oklahoma City, OK)", "link": "http://careers.stackoverflow.com/jobs/91594/software-developer-front-end-data-visualization-exaptive", "location": "Oklahoma City, OK", "hiringOrganization": "Exaptive"}}, {"geometry": {"type": "Point", "coordinates": [-71.10561, 42.3751]}, "type": "Feature", "properties": {"jobTitle": "Software Engineer at MillimanMAX (Cambridge, MA)", "link": "http://careers.stackoverflow.com/jobs/95587/software-engineer-millimanmax", "location": "Cambridge, MA", "hiringOrganization": "MillimanMAX"}}, {"geometry": {"type": "Point", "coordinates": [-71.10561, 42.3751]}, "type": "Feature", "properties": {"jobTitle": "Software Engineer Team Lead - Hadoop at trivago GmbH (D\u00c3\u00bcsseldorf, Deutschland)", "link": "http://careers.stackoverflow.com/jobs/84092/software-engineer-team-lead-hadoop-trivago-gmbh", "location": "D\u00c3\u00bcsseldorf, Deutschland", "hiringOrganization": "trivago GmbH"}}, {"geometry": {"type": "Point", "coordinates": [-77.17748, 38.93428]}, "type": "Feature", "properties": {"jobTitle": "Technical Engineer (Customer Success) at Logi Analytics (McLean, VA)", "link": "http://careers.stackoverflow.com/jobs/96798/technical-engineer-customer-success-logi-analytics", "location": "McLean, VA", "hiringOrganization": "Logi Analytics"}}, {"geometry": {"type": "Point", "coordinates": [-122.08385, 37.38605]}, "type": "Feature", "properties": {"jobTitle": "Cloud Engineer- Python, Scala, Distributed Systems for Hot Open Source Company at Elastic (Mountain View, CA) (allows remote)", "link": "http://careers.stackoverflow.com/jobs/83450/cloud-engineer-python-scala-distributed-elastic", "location": "Mountain View, CA", "hiringOrganization": "Elastic"}}, {"geometry": {"type": "Point", "coordinates": [-117.18254, 34.05557]}, "type": "Feature", "properties": {"jobTitle": "Data Visualization Application Developer at Esri (Redlands, CA)", "link": "http://careers.stackoverflow.com/jobs/92122/data-visualization-application-developer-esri", "location": "Redlands, CA", "hiringOrganization": "Esri"}}, {"geometry": {"type": "Point", "coordinates": [-117.15726, 32.71533]}, "type": "Feature", "properties": {"jobTitle": "Senior Java Server Engineer at Intensity (San Diego, CA)", "link": "http://careers.stackoverflow.com/jobs/96407/senior-java-server-engineer-intensity", "location": "San Diego, CA", "hiringOrganization": "Intensity"}}, {"geometry": {"type": "Point", "coordinates": [-4.69099, 54.22209]}, "type": "Feature", "properties": {"jobTitle": "Sr Natural Language Processing Software Engineer at Bloomberg LP (NY, NY)", "link": "http://careers.stackoverflow.com/jobs/33743/sr-natural-language-processing-software-engineer-bloomberg-lp", "location": "NY, NY", "hiringOrganization": "Bloomberg LP"}}, {"geometry": {"type": "Point", "coordinates": [-74.00597, 40.71427]}, "type": "Feature", "properties": {"jobTitle": "Sr. JavaScript Framework Developer - JS/UI at Bloomberg LP (New York, NY)", "link": "http://careers.stackoverflow.com/jobs/91834/sr-javascript-framework-developer-js-ui-bloomberg-lp", "location": "New York, NY", "hiringOrganization": "Bloomberg LP"}}, {"geometry": {"type": "Point", "coordinates": [4.47917, 51.9225]}, "type": "Feature", "properties": {"jobTitle": "Senior Software Developer with BI skills at Coolblue (Rotterdam, Netherlands)", "link": "http://careers.stackoverflow.com/jobs/95285/senior-software-developer-with-bi-skills-coolblue", "location": "Rotterdam, Netherlands", "hiringOrganization": "Coolblue"}}, {"geometry": {"type": "Point", "coordinates": [144.96434, -37.8228]}, "type": "Feature", "properties": {"jobTitle": "Software Programmer at Data Processors (Southbank, Australia)", "link": "http://careers.stackoverflow.com/jobs/96134/software-programmer-data-processors", "location": "Southbank, Australia", "hiringOrganization": "Data Processors"}}, {"geometry": {"type": "Point", "coordinates": [-74.00597, 40.71427]}, "type": "Feature", "properties": {"jobTitle": "Integration Architect - Bloomberg Law at Bloomberg LP (New York, NY)", "link": "http://careers.stackoverflow.com/jobs/91837/integration-architect-bloomberg-law-bloomberg-lp", "location": "New York, NY", "hiringOrganization": "Bloomberg LP"}}, {"geometry": {"type": "Point", "coordinates": [-122.33207, 47.60621]}, "type": "Feature", "properties": {"jobTitle": "Technical Product Manager at Author it (Seattle, WA)", "link": "http://careers.stackoverflow.com/jobs/95885/technical-product-manager-author-it", "location": "Seattle, WA", "hiringOrganization": "Author it"}}, {"geometry": {"type": "Point", "coordinates": [-118.14452, 34.14778]}, "type": "Feature", "properties": {"jobTitle": "Senior Software Engineer - Mars Science Laboratory (MSL) at Jet Propulsion Laboratory (Pasadena, CA)", "link": "http://careers.stackoverflow.com/jobs/96389/senior-software-engineer-mars-science-jet-propulsion-laboratory", "location": "Pasadena, CA", "hiringOrganization": "Jet Propulsion Laboratory"}}, {"geometry": {"type": "Point", "coordinates": [18.42322, -33.92584]}, "type": "Feature", "properties": {"jobTitle": "Software Development Engineer, AWS Benchmarking team at Amazon (Cape Town, South Africa)", "link": "http://careers.stackoverflow.com/jobs/96687/software-development-engineer-aws-benchmarking-amazon", "location": "Cape Town, South Africa", "hiringOrganization": "Amazon"}}, {"geometry": {"type": "Point", "coordinates": [-76.49218, 38.97845]}, "type": "Feature", "properties": {"jobTitle": "Software Qualifty Assurance Engineer at iJET International (Annapolis, MD)", "link": "http://careers.stackoverflow.com/jobs/95628/software-qualifty-assurance-engineer-ijet-international", "location": "Annapolis, MD", "hiringOrganization": "iJET International"}}, {"geometry": {"type": "Point", "coordinates": [-122.33207, 47.60621]}, "type": "Feature", "properties": {"jobTitle": "Senior Software Development Eng- Consumer Shopping Engagement at Amazon (Seattle, WA)", "link": "http://careers.stackoverflow.com/jobs/96692/senior-software-development-eng-consumer-amazon", "location": "Seattle, WA", "hiringOrganization": "Amazon"}}, {"geometry": {"type": "Point", "coordinates": [13.06566, 52.39886]}, "type": "Feature", "properties": {"jobTitle": "(Associate) Developer for Healthcare at SAP SE (Potsdam, Deutschland)", "link": "http://careers.stackoverflow.com/jobs/96490/associate-developer-for-healthcare-sap-se", "location": "Potsdam, Deutschland", "hiringOrganization": "SAP SE"}}, {"geometry": {"type": "Point", "coordinates": [-122.14302, 37.44188]}, "type": "Feature", "properties": {"jobTitle": "Full-stack JavaScript hacker @ fast growing VC backed start-up at Ice.com (Palo Alto, CA)", "link": "http://careers.stackoverflow.com/jobs/96086/full-stack-javascript-hacker-fast-growing-vc-icecom", "location": "Palo Alto, CA", "hiringOrganization": "Ice.com"}}, {"geometry": {"type": "Point", "coordinates": [-87.65005, 41.85003]}, "type": "Feature", "properties": {"jobTitle": "Senior Software Engineer - Autonomous Driving at HERE-Chicago (Chicago, IL)", "link": "http://careers.stackoverflow.com/jobs/96624/senior-software-engineer-autonomous-driving-here-chicago", "location": "Chicago, IL", "hiringOrganization": "HERE-Chicago"}}, {"geometry": {"type": "Point", "coordinates": [-9.13333, 38.71667]}, "type": "Feature", "properties": {"jobTitle": "Java/Scala Software Engineer at Feedzai (Lisbon, Portugal)", "link": "http://careers.stackoverflow.com/jobs/92996/java-scala-software-engineer-feedzai", "location": "Lisbon, Portugal", "hiringOrganization": "Feedzai"}}, {"geometry": {"type": "Point", "coordinates": [-118.24368, 34.05223]}, "type": "Feature", "properties": {"jobTitle": "Mobile Platform Developer at Vrse Inc. (Los Angeles, CA)", "link": "http://careers.stackoverflow.com/jobs/91857/mobile-platform-developer-vrse-inc", "location": "Los Angeles, CA", "hiringOrganization": "Vrse Inc."}}, {"geometry": {"type": "Point", "coordinates": [-121.95524, 37.35411]}, "type": "Feature", "properties": {"jobTitle": "DSE Analytics Engineer at DataStax (Santa Clara, CA)", "link": "http://careers.stackoverflow.com/jobs/91772/dse-analytics-engineer-datastax", "location": "Santa Clara, CA", "hiringOrganization": "DataStax"}}, {"geometry": {"type": "Point", "coordinates": [-74.14098, 41.05732]}, "type": "Feature", "properties": {"jobTitle": "Php Web Developer / Programmer (Immediate Opening) - Ramsey, NJ at Rodman Media (Ramsey, NJ)", "link": "http://careers.stackoverflow.com/jobs/94115/php-web-developer-programmer-immediate-rodman-media", "location": "Ramsey, NJ", "hiringOrganization": "Rodman Media"}}, {"geometry": {"type": "Point", "coordinates": [-71.10561, 42.3751]}, "type": "Feature", "properties": {"jobTitle": "Software Engineer at Smithsonian Astrophysical Observatory (Cambridge, MA)", "link": "http://careers.stackoverflow.com/jobs/95165/software-engineer-smithsonian-astrophysical", "location": "Cambridge, MA", "hiringOrganization": "Smithsonian Astrophysical Observatory"}}, {"geometry": {"type": "Point", "coordinates": [-71.16616, 42.24177]}, "type": "Feature", "properties": {"jobTitle": "Director of Engineering at Sonian, Inc. (Dedham, MA)", "link": "http://careers.stackoverflow.com/jobs/93948/director-of-engineering-sonian-inc", "location": "Dedham, MA", "hiringOrganization": "Sonian, Inc."}}, {"geometry": {"type": "Point", "coordinates": [-122.14302, 37.44188]}, "type": "Feature", "properties": {"jobTitle": "Software Engineer, Product Testing at Tableau Software (Palo Alto, CA)", "link": "http://careers.stackoverflow.com/jobs/92419/software-engineer-product-testing-tableau-software", "location": "Palo Alto, CA", "hiringOrganization": "Tableau Software"}}, {"geometry": {"type": "Point", "coordinates": [-79.4163, 43.70011]}, "type": "Feature", "properties": {"jobTitle": "Senior Java Developer at Infusion (Toronto, ON, Canada)", "link": "http://careers.stackoverflow.com/jobs/95615/senior-java-developer-infusion", "location": "Toronto, ON, Canada", "hiringOrganization": "Infusion"}}, {"geometry": {"type": "Point", "coordinates": [5.17639, 52.22333]}, "type": "Feature", "properties": {"jobTitle": "Senior Ruby on Rails developer at Shop2market (Hilversum, Netherlands)", "link": "http://careers.stackoverflow.com/jobs/94777/senior-ruby-on-rails-developer-shop2market", "location": "Hilversum, Netherlands", "hiringOrganization": "Shop2market"}}, {"geometry": {"type": "Point", "coordinates": [-78.89862, 35.99403]}, "type": "Feature", "properties": {"jobTitle": "Principal Engineer at First. (Durham, NC) (allows remote)", "link": "http://careers.stackoverflow.com/jobs/95956/principal-engineer-first", "location": "Durham, NC", "hiringOrganization": "First."}}, {"geometry": {"type": "Point", "coordinates": [-0.12574, 51.50853]}, "type": "Feature", "properties": {"jobTitle": "Web Software Engineer - Equities Technology at BATS Chi-X Europe (London, UK)", "link": "http://careers.stackoverflow.com/jobs/93342/web-software-engineer-equities-technology-bats-chi-x-europe", "location": "London, UK", "hiringOrganization": "BATS Chi-X Europe"}}, {"geometry": {"type": "Point", "coordinates": [23.71622, 37.97945]}, "type": "Feature", "properties": {"jobTitle": "Awesome Senior Devops Engineer needed at Taxibeat Ltd (Athens, Greece) (allows remote)", "link": "http://careers.stackoverflow.com/jobs/51461/awesome-senior-devops-engineer-needed-taxibeat-ltd", "location": "Athens, Greece", "hiringOrganization": "Taxibeat Ltd"}}, {"geometry": {"type": "Point", "coordinates": [-122.14302, 37.44188]}, "type": "Feature", "properties": {"jobTitle": "Senior Software Engineer (Palo Alto OR Seattle) at Coupang (Palo Alto, CA)", "link": "http://careers.stackoverflow.com/jobs/89629/senior-software-engineer-palo-alto-or-seattle-coupang", "location": "Palo Alto, CA", "hiringOrganization": "Coupang"}}, {"geometry": {"type": "Point", "coordinates": [13.41053, 52.52437]}, "type": "Feature", "properties": {"jobTitle": "Java Backend Developer (m/f) at Visual Meta GmbH (Berlin, Deutschland)", "link": "http://careers.stackoverflow.com/jobs/83962/java-backend-developer-m-f-visual-meta-gmbh", "location": "Berlin, Deutschland", "hiringOrganization": "Visual Meta GmbH"}}, {"geometry": {"type": "Point", "coordinates": [-122.41942, 37.77493]}, "type": "Feature", "properties": {"jobTitle": "Information Security Engineer at Gap Inc. (San Francisco, CA)", "link": "http://careers.stackoverflow.com/jobs/89127/information-security-engineer-gap-inc", "location": "San Francisco, CA", "hiringOrganization": "Gap Inc."}}, {"geometry": {"type": "Point", "coordinates": [-122.28525, 37.83132]}, "type": "Feature", "properties": {"jobTitle": "Sr. Software Engineer, Machine Learning Team at TubeMogul (Emeryville, CA)", "link": "http://careers.stackoverflow.com/jobs/90778/sr-software-engineer-machine-learning-team-tubemogul", "location": "Emeryville, CA", "hiringOrganization": "TubeMogul"}}, {"geometry": {"type": "Point", "coordinates": [55.17128, 25.0657]}, "type": "Feature", "properties": {"jobTitle": "Machine Learning Scientist at insydo (Dubai, United Arab Emirates)", "link": "http://careers.stackoverflow.com/jobs/95542/machine-learning-scientist-insydo", "location": "Dubai, United Arab Emirates", "hiringOrganization": "insydo"}}, {"geometry": {"type": "Point", "coordinates": [-122.33207, 47.60621]}, "type": "Feature", "properties": {"jobTitle": "Android Developer at PicMonkey (Seattle, WA)", "link": "http://careers.stackoverflow.com/jobs/92007/android-developer-picmonkey", "location": "Seattle, WA", "hiringOrganization": "PicMonkey"}}, {"geometry": {"type": "Point", "coordinates": [0.11667, 52.2]}, "type": "Feature", "properties": {"jobTitle": "Java Software Engineer at EMBL-EBI (Cambridge, UK)", "link": "http://careers.stackoverflow.com/jobs/95507/java-software-engineer-embl-ebi", "location": "Cambridge, UK", "hiringOrganization": "EMBL-EBI"}}, {"geometry": {"type": "Point", "coordinates": [0.11667, 52.2]}, "type": "Feature", "properties": {"jobTitle": "Java Software Engineer at EMBL-EBI (Cambridge, UK)", "link": "http://careers.stackoverflow.com/jobs/95508/java-software-engineer-embl-ebi", "location": "Cambridge, UK", "hiringOrganization": "EMBL-EBI"}}, {"geometry": {"type": "Point", "coordinates": [-118.24368, 34.05223]}, "type": "Feature", "properties": {"jobTitle": "OpenGL Software Developer at Vrse Inc. (Los Angeles, CA)", "link": "http://careers.stackoverflow.com/jobs/91852/opengl-software-developer-vrse-inc", "location": "Los Angeles, CA", "hiringOrganization": "Vrse Inc."}}, {"geometry": {"type": "Point", "coordinates": [10.01534, 53.57532]}, "type": "Feature", "properties": {"jobTitle": "(Senior-) C# Entwickler (m/w) at Statista GmbH (Hamburg, Deutschland)", "link": "http://careers.stackoverflow.com/jobs/91175/senior-c-sharp-entwickler-m-w-statista-gmbh", "location": "Hamburg, Deutschland", "hiringOrganization": "Statista GmbH"}}, {"geometry": {"type": "Point", "coordinates": [-4.69099, 54.22209]}, "type": "Feature", "properties": {"jobTitle": "Web Developer at Simons Foundation (NY, NY)", "link": "http://careers.stackoverflow.com/jobs/95191/web-developer-simons-foundation", "location": "NY, NY", "hiringOrganization": "Simons Foundation"}}, {"geometry": {"type": "Point", "coordinates": [-122.33207, 47.60621]}, "type": "Feature", "properties": {"jobTitle": "Senior Business Systems Analyst (Must have strong Salesforce.com experience) at CDK Global (Seattle, WA)", "link": "http://careers.stackoverflow.com/jobs/89481/senior-business-systems-analyst-must-have-strong-cdk-global", "location": "Seattle, WA", "hiringOrganization": "CDK Global"}}, {"geometry": {"type": "Point", "coordinates": [-122.33207, 47.60621]}, "type": "Feature", "properties": {"jobTitle": "Amazon Echo - Software Development Manager at Amazon (Seattle, WA)", "link": "http://careers.stackoverflow.com/jobs/96688/amazon-echo-software-development-manager-amazon", "location": "Seattle, WA", "hiringOrganization": "Amazon"}}, {"geometry": {"type": "Point", "coordinates": [-77.3861, 38.96955]}, "type": "Feature", "properties": {"jobTitle": "QA Engineer at SemanticBits (Herndon, VA) (allows remote)", "link": "http://careers.stackoverflow.com/jobs/92294/qa-engineer-semanticbits", "location": "Herndon, VA", "hiringOrganization": "SemanticBits"}}, {"geometry": {"type": "Point", "coordinates": [-74.00597, 40.71427]}, "type": "Feature", "properties": {"jobTitle": "R&D Team Leader Network Design And Security at Bloomberg LP (New York, NY)", "link": "http://careers.stackoverflow.com/jobs/91833/r-d-team-leader-network-design-and-security-bloomberg-lp", "location": "New York, NY", "hiringOrganization": "Bloomberg LP"}}, {"geometry": {"type": "Point", "coordinates": [-4.69099, 54.22209]}, "type": "Feature", "properties": {"jobTitle": "Quality Assurance Analyst at Investors Economic Assurance, LLC (NY, NY)", "link": "http://careers.stackoverflow.com/jobs/95415/quality-assurance-analyst-investors-economic-assurance", "location": "NY, NY", "hiringOrganization": "Investors Economic Assurance, LLC"}}, {"geometry": {"type": "Point", "coordinates": [-117.15726, 32.71533]}, "type": "Feature", "properties": {"jobTitle": "Professional Services Engineer at The Intellisis Corporation (San Diego, CA)", "link": "http://careers.stackoverflow.com/jobs/96401/professional-services-engineer-the-intellisis-corporation", "location": "San Diego, CA", "hiringOrganization": "The Intellisis Corporation"}}, {"geometry": {"type": "Point", "coordinates": [-76.83942, 39.24038]}, "type": "Feature", "properties": {"jobTitle": "C / C++ Software Engineer at Tenable Network Security (Columbia, MD) (allows remote)", "link": "http://careers.stackoverflow.com/jobs/71598/c-c-plus-plus-software-engineer-tenable-network-security", "location": "Columbia, MD", "hiringOrganization": "Tenable Network Security"}}, {"geometry": {"type": "Point", "coordinates": [-97.51643, 35.46756]}, "type": "Feature", "properties": {"jobTitle": "Security Architect at Exaptive (Oklahoma City, OK)", "link": "http://careers.stackoverflow.com/jobs/91593/security-architect-exaptive", "location": "Oklahoma City, OK", "hiringOrganization": "Exaptive"}}, {"geometry": {"type": "Point", "coordinates": [-97.51643, 35.46756]}, "type": "Feature", "properties": {"jobTitle": "Full Stack Engineer - Budapest at Prezi.com (Budapest, Magyarorsz\u00c3\u00a1g)", "link": "http://careers.stackoverflow.com/jobs/96642/full-stack-engineer-budapest-prezicom", "location": "Budapest, Magyarorsz\u00c3\u00a1g", "hiringOrganization": "Prezi.com"}}, {"geometry": {"type": "Point", "coordinates": [-117.15726, 32.71533]}, "type": "Feature", "properties": {"jobTitle": "Database Administrator at Cognitive Medical Systems (San Diego, CA)", "link": "http://careers.stackoverflow.com/jobs/91898/database-administrator-cognitive-medical-systems", "location": "San Diego, CA", "hiringOrganization": "Cognitive Medical Systems"}}, {"geometry": {"type": "Point", "coordinates": [-121.17606, 38.67796]}, "type": "Feature", "properties": {"jobTitle": "Software Engineer at Panduit (Folsom, CA)", "link": "http://careers.stackoverflow.com/jobs/95085/software-engineer-panduit", "location": "Folsom, CA", "hiringOrganization": "Panduit"}}, {"geometry": {"type": "Point", "coordinates": [-74.00597, 40.71427]}, "type": "Feature", "properties": {"jobTitle": "Senior Automation And Monitoring Middleware Developer at Bloomberg LP (New York, NY)", "link": "http://careers.stackoverflow.com/jobs/81129/senior-automation-and-monitoring-middleware-bloomberg-lp", "location": "New York, NY", "hiringOrganization": "Bloomberg LP"}}, {"geometry": {"type": "Point", "coordinates": [-74.00597, 40.71427]}, "type": "Feature", "properties": {"jobTitle": "Application Developer (m/f) at Definiens AG (M\u00c3\u00bcnchen, Deutschland)", "link": "http://careers.stackoverflow.com/jobs/94773/application-developer-m-f-definiens-ag", "location": "M\u00c3\u00bcnchen, Deutschland", "hiringOrganization": "Definiens AG"}}, {"geometry": {"type": "Point", "coordinates": [-0.12574, 51.50853]}, "type": "Feature", "properties": {"jobTitle": "Front End Web Developer at 3D Repo Ltd (London, UK)", "link": "http://careers.stackoverflow.com/jobs/94430/front-end-web-developer-3d-repo-ltd", "location": "London, UK", "hiringOrganization": "3D Repo Ltd"}}, {"geometry": {"type": "Point", "coordinates": [-0.12574, 51.50853]}, "type": "Feature", "properties": {"jobTitle": "Full Stack JavaScript Developer at 3D Repo Ltd (London, UK)", "link": "http://careers.stackoverflow.com/jobs/94443/full-stack-javascript-developer-3d-repo-ltd", "location": "London, UK", "hiringOrganization": "3D Repo Ltd"}}, {"geometry": {"type": "Point", "coordinates": [11.01723, 49.62745]}, "type": "Feature", "properties": {"jobTitle": "(Senior) Datenbankentwickler (m/w) MS SQL, MySQL at infoteam Software AG (Bubenreuth, Deutschland)", "link": "http://careers.stackoverflow.com/jobs/94896/senior-datenbankentwickler-m-w-ms-sql-mysql-infoteam-software-ag", "location": "Bubenreuth, Deutschland", "hiringOrganization": "infoteam Software AG"}}, {"geometry": {"type": "Point", "coordinates": [-122.08385, 37.38605]}, "type": "Feature", "properties": {"jobTitle": "Software Engineer at Google (Mountain View, CA)", "link": "http://careers.stackoverflow.com/jobs/96003/software-engineer-google", "location": "Mountain View, CA", "hiringOrganization": "Google"}}, {"geometry": {"type": "Point", "coordinates": [-122.08385, 37.38605]}, "type": "Feature", "properties": {"jobTitle": "Quality Assurance Engineer (m/f) - Rendering & Cloud Computing at Dassault Systemes 3DExcite GmbH (M\u00c3\u00bcnchen, Deutschland)", "link": "http://careers.stackoverflow.com/jobs/88004/quality-assurance-engineer-m-f-rendering-dassault-systemes-3dexcite", "location": "M\u00c3\u00bcnchen, Deutschland", "hiringOrganization": "Dassault Systemes 3DExcite GmbH"}}, {"geometry": {"type": "Point", "coordinates": [-122.08385, 37.38605]}, "type": "Feature", "properties": {"jobTitle": "DevOps / Configuration Management Engineer at ABB (Krak\u00c3\u00b3w, Poland)", "link": "http://careers.stackoverflow.com/jobs/95540/devops-configuration-management-engineer-abb", "location": "Krak\u00c3\u00b3w, Poland", "hiringOrganization": "ABB"}}, {"geometry": {"type": "Point", "coordinates": [-122.41942, 37.77493]}, "type": "Feature", "properties": {"jobTitle": "Software Engineer at Google (San Francisco, CA)", "link": "http://careers.stackoverflow.com/jobs/96004/software-engineer-google", "location": "San Francisco, CA", "hiringOrganization": "Google"}}, {"geometry": {"type": "Point", "coordinates": [-70.9342, 41.63622]}, "type": "Feature", "properties": {"jobTitle": "Senior Software Engineer, Android Applications at iRobot Corporation (Bedford, MA)", "link": "http://careers.stackoverflow.com/jobs/75823/senior-software-engineer-android-applications-irobot-corporation", "location": "Bedford, MA", "hiringOrganization": "iRobot Corporation"}}, {"geometry": {"type": "Point", "coordinates": [13.41053, 52.52437]}, "type": "Feature", "properties": {"jobTitle": "(Senior) PHP / Symfony2 Developer (m/w) at Exozet Berlin GmbH (Berlin, Deutschland)", "link": "http://careers.stackoverflow.com/jobs/94809/senior-php-symfony2-developer-m-w-exozet-berlin-gmbh", "location": "Berlin, Deutschland", "hiringOrganization": "Exozet Berlin GmbH"}}, {"geometry": {"type": "Point", "coordinates": [-74.00597, 40.71427]}, "type": "Feature", "properties": {"jobTitle": "LAMP Developer at Zeta Interactive (New York, NY)", "link": "http://careers.stackoverflow.com/jobs/95787/lamp-developer-zeta-interactive", "location": "New York, NY", "hiringOrganization": "Zeta Interactive"}}, {"geometry": {"type": "Point", "coordinates": [-2.23743, 53.48095]}, "type": "Feature", "properties": {"jobTitle": "Software Developer Java at Tracsis plc (Manchester, UK)", "link": "http://careers.stackoverflow.com/jobs/96562/software-developer-java-tracsis-plc", "location": "Manchester, UK", "hiringOrganization": "Tracsis plc"}}, {"geometry": {"type": "Point", "coordinates": [-117.91867, 33.64113]}, "type": "Feature", "properties": {"jobTitle": "Software Engineer, Generalist at Connectifier, Inc. (Costa Mesa, CA)", "link": "http://careers.stackoverflow.com/jobs/62459/software-engineer-generalist-connectifier-inc", "location": "Costa Mesa, CA", "hiringOrganization": "Connectifier, Inc."}}, {"geometry": {"type": "Point", "coordinates": [-117.91867, 33.64113]}, "type": "Feature", "properties": {"jobTitle": "Software QA Engineer - Zurich, Switzerland at PlusQuote.net AG (Z\u00c3\u00bcrich, Switzerland)", "link": "http://careers.stackoverflow.com/jobs/95222/software-qa-engineer-zurich-switzerland-plusquotenet-ag", "location": "Z\u00c3\u00bcrich, Switzerland", "hiringOrganization": "PlusQuote.net AG"}}, {"geometry": {"type": "Point", "coordinates": [-4.69099, 54.22209]}, "type": "Feature", "properties": {"jobTitle": "MySQL DBA at MLB Advanced Media (NY, NY)", "link": "http://careers.stackoverflow.com/jobs/94634/mysql-dba-mlb-advanced-media", "location": "NY, NY", "hiringOrganization": "MLB Advanced Media"}}, {"geometry": {"type": "Point", "coordinates": [-6.24889, 53.33306]}, "type": "Feature", "properties": {"jobTitle": "Full-Stack Software Developers at Groupon International (Dublin, Ireland)", "link": "http://careers.stackoverflow.com/jobs/92903/full-stack-software-developers-groupon-international", "location": "Dublin, Ireland", "hiringOrganization": "Groupon International"}}, {"geometry": {"type": "Point", "coordinates": [-6.24889, 53.33306]}, "type": "Feature", "properties": {"jobTitle": "Java Scala Developer (M/F) at Transpaygo GmbH (Wien, \u00c3\u2013sterreich)", "link": "http://careers.stackoverflow.com/jobs/95157/java-scala-developer-m-f-transpaygo-gmbh", "location": "Wien, \u00c3\u2013sterreich", "hiringOrganization": "Transpaygo GmbH"}}, {"geometry": {"type": "Point", "coordinates": [4.47917, 51.9225]}, "type": "Feature", "properties": {"jobTitle": "Scala Developer - Innovative company in Rotterdam at Pointlogic (Rotterdam, Netherlands)", "link": "http://careers.stackoverflow.com/jobs/94769/scala-developer-innovative-company-in-rotterdam-pointlogic", "location": "Rotterdam, Netherlands", "hiringOrganization": "Pointlogic"}}, {"geometry": {"type": "Point", "coordinates": [-122.12151, 47.67399]}, "type": "Feature", "properties": {"jobTitle": "Electrical Engineer at Sensoria Inc. (Redmond, WA)", "link": "http://careers.stackoverflow.com/jobs/96028/electrical-engineer-sensoria-inc", "location": "Redmond, WA", "hiringOrganization": "Sensoria Inc."}}, {"geometry": {"type": "Point", "coordinates": [-121.87468, 37.66243]}, "type": "Feature", "properties": {"jobTitle": "Technical Product Manager - Tools and Infrastructure at Workday (Pleasanton, CA)", "link": "http://careers.stackoverflow.com/jobs/91478/technical-product-manager-tools-and-workday", "location": "Pleasanton, CA", "hiringOrganization": "Workday"}}, {"geometry": {"type": "Point", "coordinates": [-88.07979, 41.98475]}, "type": "Feature", "properties": {"jobTitle": "PHP Developer at Jon-Don Inc. (Roselle, IL)", "link": "http://careers.stackoverflow.com/jobs/96374/php-developer-jon-don-inc", "location": "Roselle, IL", "hiringOrganization": "Jon-Don Inc."}}, {"geometry": {"type": "Point", "coordinates": [-77.03637, 38.89511]}, "type": "Feature", "properties": {"jobTitle": "C++ Software Engineer at B-Line Medical (Washington, DC)", "link": "http://careers.stackoverflow.com/jobs/95036/c-plus-plus-software-engineer-b-line-medical", "location": "Washington, DC", "hiringOrganization": "B-Line Medical"}}, {"geometry": {"type": "Point", "coordinates": [-122.20068, 47.61038]}, "type": "Feature", "properties": {"jobTitle": "Sr. Engineer (Dev Tools) at AudienceScience (Bellevue, WA)", "link": "http://careers.stackoverflow.com/jobs/96019/sr-engineer-dev-tools-audiencescience", "location": "Bellevue, WA", "hiringOrganization": "AudienceScience"}}, {"geometry": {"type": "Point", "coordinates": [4.88969, 52.37403]}, "type": "Feature", "properties": {"jobTitle": "DevOps Engineer at Advidi (Amsterdam, Netherlands)", "link": "http://careers.stackoverflow.com/jobs/91150/devops-engineer-advidi", "location": "Amsterdam, Netherlands", "hiringOrganization": "Advidi"}}, {"geometry": {"type": "Point", "coordinates": [-0.12574, 51.50853]}, "type": "Feature", "properties": {"jobTitle": "Software Engineer - Core Engine at Ontoit Holdings Ltd (London, UK)", "link": "http://careers.stackoverflow.com/jobs/95691/software-engineer-core-engine-ontoit-holdings-ltd", "location": "London, UK", "hiringOrganization": "Ontoit Holdings Ltd"}}, {"geometry": {"type": "Point", "coordinates": [-75.7116, 39.84678]}, "type": "Feature", "properties": {"jobTitle": "Full Stack Software Engineer at Chatham Financial (Kennett Square, PA)", "link": "http://careers.stackoverflow.com/jobs/96094/full-stack-software-engineer-chatham-financial", "location": "Kennett Square, PA", "hiringOrganization": "Chatham Financial"}}, {"geometry": {"type": "Point", "coordinates": [-4.69099, 54.22209]}, "type": "Feature", "properties": {"jobTitle": "Business Product Owner at MediaRadar (NY, NY)", "link": "http://careers.stackoverflow.com/jobs/96810/business-product-owner-mediaradar", "location": "NY, NY", "hiringOrganization": "MediaRadar"}}, {"geometry": {"type": "Point", "coordinates": [-97.51643, 35.46756]}, "type": "Feature", "properties": {"jobTitle": "Application Engineer at Exaptive (Oklahoma City, OK)", "link": "http://careers.stackoverflow.com/jobs/91414/application-engineer-exaptive", "location": "Oklahoma City, OK", "hiringOrganization": "Exaptive"}}, {"geometry": {"type": "Point", "coordinates": [-80.14338, 26.12231]}, "type": "Feature", "properties": {"jobTitle": "Sr. Software Engineer - Java at Chewy.com (Fort Lauderdale, FL)", "link": "http://careers.stackoverflow.com/jobs/92389/sr-software-engineer-java-chewycom", "location": "Fort Lauderdale, FL", "hiringOrganization": "Chewy.com"}}, {"geometry": {"type": "Point", "coordinates": [-122.14302, 37.44188]}, "type": "Feature", "properties": {"jobTitle": "Senior software engineer - equity + market salary at Ice.com (Palo Alto, CA)", "link": "http://careers.stackoverflow.com/jobs/95760/senior-software-engineer-equity-plus-market-salary-icecom", "location": "Palo Alto, CA", "hiringOrganization": "Ice.com"}}, {"geometry": {"type": "Point", "coordinates": [144.96332, -37.814]}, "type": "Feature", "properties": {"jobTitle": "Senior Software Developer at ThoughtWorks (Melbourne, Australia)", "link": "http://careers.stackoverflow.com/jobs/95351/senior-software-developer-thoughtworks", "location": "Melbourne, Australia", "hiringOrganization": "ThoughtWorks"}}, {"geometry": {"type": "Point", "coordinates": [-3.52751, 50.7236]}, "type": "Feature", "properties": {"jobTitle": "Graduate Developer - Reboot the classroom at Sparx (Exeter, UK)", "link": "http://careers.stackoverflow.com/jobs/73911/graduate-developer-reboot-the-classroom-sparx", "location": "Exeter, UK", "hiringOrganization": "Sparx"}}, {"geometry": {"type": "Point", "coordinates": [-120.691, 35.62664]}, "type": "Feature", "properties": {"jobTitle": "Software Engineer - HTML5/JavaScript/Angular at IQMS (Paso Robles, CA)", "link": "http://careers.stackoverflow.com/jobs/95516/software-engineer-html5-javascript-angular-iqms", "location": "Paso Robles, CA", "hiringOrganization": "IQMS"}}, {"geometry": {"type": "Point", "coordinates": [0.11667, 52.2]}, "type": "Feature", "properties": {"jobTitle": "Research Technician - Programmer at University of Cambridge (Cambridge, UK)", "link": "http://careers.stackoverflow.com/jobs/95374/research-technician-programmer-university-of-cambridge", "location": "Cambridge, UK", "hiringOrganization": "University of Cambridge"}}, {"geometry": {"type": "Point", "coordinates": [-87.65005, 41.85003]}, "type": "Feature", "properties": {"jobTitle": "Technical Operations Engineer- 3rd Shift at Spot Trading LLC (Chicago, IL)", "link": "http://careers.stackoverflow.com/jobs/96311/technical-operations-engineer-3rd-shift-spot-trading-llc", "location": "Chicago, IL", "hiringOrganization": "Spot Trading LLC"}}, {"geometry": {"type": "Point", "coordinates": [2.15899, 41.38879]}, "type": "Feature", "properties": {"jobTitle": "Systems Engineer at Brandcrumb (Barcelona, Spain)", "link": "http://careers.stackoverflow.com/jobs/96771/systems-engineer-brandcrumb", "location": "Barcelona, Spain", "hiringOrganization": "Brandcrumb"}}, {"geometry": {"type": "Point", "coordinates": [2.15899, 41.38879]}, "type": "Feature", "properties": {"jobTitle": "Software Engineer- Backend at Brandcrumb (Barcelona, Spain)", "link": "http://careers.stackoverflow.com/jobs/96773/software-engineer-backend-brandcrumb", "location": "Barcelona, Spain", "hiringOrganization": "Brandcrumb"}}, {"geometry": {"type": "Point", "coordinates": [-89.40123, 43.07305]}, "type": "Feature", "properties": {"jobTitle": "SharePoint Administrator at WCER (Madison, WI)", "link": "http://careers.stackoverflow.com/jobs/96581/sharepoint-administrator-wcer", "location": "Madison, WI", "hiringOrganization": "WCER"}}, {"geometry": {"type": "Point", "coordinates": [9.99155, 48.39841]}, "type": "Feature", "properties": {"jobTitle": "Principal System Debug Engineer - Infotainment Head Unit Software (97998) (m/f) at BMW Group (Ulm, Deutschland)", "link": "http://careers.stackoverflow.com/jobs/84704/principal-system-debug-engineer-infotainment-bmw-group", "location": "Ulm, Deutschland", "hiringOrganization": "BMW Group"}}, {"geometry": {"type": "Point", "coordinates": [121.45806, 31.22222]}, "type": "Feature", "properties": {"jobTitle": "Executive Technical Director at AKQA (Shanghai, China)", "link": "http://careers.stackoverflow.com/jobs/93464/executive-technical-director-akqa", "location": "Shanghai, China", "hiringOrganization": "AKQA"}}, {"geometry": {"type": "Point", "coordinates": [-71.0995, 42.3876]}, "type": "Feature", "properties": {"jobTitle": "Software Engineer - All Levels at clypd (Somerville, MA)", "link": "http://careers.stackoverflow.com/jobs/95770/software-engineer-all-levels-clypd", "location": "Somerville, MA", "hiringOrganization": "clypd"}}, {"geometry": {"type": "Point", "coordinates": [-118.24368, 34.05223]}, "type": "Feature", "properties": {"jobTitle": "Senior Software Engineer (Elevated Careers) at eHarmony (Los Angeles, CA)", "link": "http://careers.stackoverflow.com/jobs/95789/senior-software-engineer-elevated-careers-eharmony", "location": "Los Angeles, CA", "hiringOrganization": "eHarmony"}}, {"geometry": {"type": "Point", "coordinates": [-79.4163, 43.70011]}, "type": "Feature", "properties": {"jobTitle": "Senior iOS and Android Developers at Infusion (Toronto, ON, Canada)", "link": "http://careers.stackoverflow.com/jobs/95633/senior-ios-and-android-developers-infusion", "location": "Toronto, ON, Canada", "hiringOrganization": "Infusion"}}, {"geometry": {"type": "Point", "coordinates": [13.41053, 52.52437]}, "type": "Feature", "properties": {"jobTitle": "Senior Java Developer (m/f) at Exozet Berlin GmbH (Berlin, Deutschland)", "link": "http://careers.stackoverflow.com/jobs/95464/senior-java-developer-m-f-exozet-berlin-gmbh", "location": "Berlin, Deutschland", "hiringOrganization": "Exozet Berlin GmbH"}}, {"geometry": {"type": "Point", "coordinates": [-122.41942, 37.77493]}, "type": "Feature", "properties": {"jobTitle": "Operations Engineer | DevOps at Wikimedia Foundation (San Francisco, CA) (allows remote)", "link": "http://careers.stackoverflow.com/jobs/94300/operations-engineer-devops-wikimedia-foundation", "location": "San Francisco, CA", "hiringOrganization": "Wikimedia Foundation"}}, {"geometry": {"type": "Point", "coordinates": [-8.92482, 52.70198]}, "type": "Feature", "properties": {"jobTitle": "C/C++ Software Engineer at Intel Corporation (Shannon, Ireland)", "link": "http://careers.stackoverflow.com/jobs/91200/c-c-plus-plus-software-engineer-intel-corporation", "location": "Shannon, Ireland", "hiringOrganization": "Intel Corporation"}}, {"geometry": {"type": "Point", "coordinates": [13.41053, 52.52437]}, "type": "Feature", "properties": {"jobTitle": "Senior Software Engineer - Android at HERE, a Nokia company (Berlin, Germany)", "link": "http://careers.stackoverflow.com/jobs/92034/senior-software-engineer-android-here-a-nokia-company", "location": "Berlin, Germany", "hiringOrganization": "HERE, a Nokia company"}}, {"geometry": {"type": "Point", "coordinates": [0.11667, 52.2]}, "type": "Feature", "properties": {"jobTitle": "Systems Administrator (Linux) at EMBL-EBI (Cambridge, UK)", "link": "http://careers.stackoverflow.com/jobs/94627/systems-administrator-linux-embl-ebi", "location": "Cambridge, UK", "hiringOrganization": "EMBL-EBI"}}, {"geometry": {"type": "Point", "coordinates": [-118.49119, 34.01945]}, "type": "Feature", "properties": {"jobTitle": "DevOps Engineer at The Mobile Majority (Santa Monica, CA)", "link": "http://careers.stackoverflow.com/jobs/93312/devops-engineer-the-mobile-majority", "location": "Santa Monica, CA", "hiringOrganization": "The Mobile Majority"}}, {"geometry": {"type": "Point", "coordinates": [-118.49119, 34.01945]}, "type": "Feature", "properties": {"jobTitle": "Software Engineer (Global Service Now) at DHL IT Services Europe (Praha, esk\u00c3\u00a1 republika)", "link": "http://careers.stackoverflow.com/jobs/94873/software-engineer-global-service-now-dhl-it-services-europe", "location": "Praha, \u00c4\u0152esk\u00c3\u00a1 republika", "hiringOrganization": "DHL IT Services Europe"}}, {"geometry": {"type": "Point", "coordinates": [23.32415, 42.69751]}, "type": "Feature", "properties": {"jobTitle": "Senior Java Back-End Software Engineer at VMware Bulgaria (Sofia, Bulgaria)", "link": "http://careers.stackoverflow.com/jobs/94017/senior-java-back-end-software-engineer-vmware-bulgaria", "location": "Sofia, Bulgaria", "hiringOrganization": "VMware Bulgaria"}}, {"geometry": {"type": "Point", "coordinates": [-71.0995, 42.3876]}, "type": "Feature", "properties": {"jobTitle": "Principal Software Engineer at clypd (Somerville, MA)", "link": "http://careers.stackoverflow.com/jobs/95766/principal-software-engineer-clypd", "location": "Somerville, MA", "hiringOrganization": "clypd"}}, {"geometry": {"type": "Point", "coordinates": [-4.69099, 54.22209]}, "type": "Feature", "properties": {"jobTitle": "wanted: Android Engineer hacker / bandmate at The Hackerati (NY, NY)", "link": "http://careers.stackoverflow.com/jobs/75704/wanted-android-engineer-hacker-bandmate-the-hackerati", "location": "NY, NY", "hiringOrganization": "The Hackerati"}}, {"geometry": {"type": "Point", "coordinates": [-74.29376, 40.82066]}, "type": "Feature", "properties": {"jobTitle": "Senior .Net Developer at ADP (Roseland, NJ)", "link": "http://careers.stackoverflow.com/jobs/73591/senior-net-developer-adp", "location": "Roseland, NJ", "hiringOrganization": "ADP"}}, {"geometry": {"type": "Point", "coordinates": [-87.65005, 41.85003]}, "type": "Feature", "properties": {"jobTitle": "VP of Software Engineer, Data at Centro (Chicago, IL)", "link": "http://careers.stackoverflow.com/jobs/96476/vp-of-software-engineer-data-centro", "location": "Chicago, IL", "hiringOrganization": "Centro"}}, {"geometry": {"type": "Point", "coordinates": [-122.20874, 47.68149]}, "type": "Feature", "properties": {"jobTitle": "DevOps Engineer at INRIX (Kirkland, WA)", "link": "http://careers.stackoverflow.com/jobs/85647/devops-engineer-inrix", "location": "Kirkland, WA", "hiringOrganization": "INRIX"}}, {"geometry": {"type": "Point", "coordinates": [-0.12574, 51.50853]}, "type": "Feature", "properties": {"jobTitle": "Security Engineer at Hotels.com (London, UK)", "link": "http://careers.stackoverflow.com/jobs/94359/security-engineer-hotelscom", "location": "London, UK", "hiringOrganization": "Hotels.com"}}, {"geometry": {"type": "Point", "coordinates": [-122.20874, 47.68149]}, "type": "Feature", "properties": {"jobTitle": "Head Of Engineering (Platform & Cloud) at INRIX (Kirkland, WA)", "link": "http://careers.stackoverflow.com/jobs/88378/head-of-engineering-platform-cloud-inrix", "location": "Kirkland, WA", "hiringOrganization": "INRIX"}}, {"geometry": {"type": "Point", "coordinates": [-115.13722, 36.17497]}, "type": "Feature", "properties": {"jobTitle": "Perl Software Engineer - Las Vegas, NV at SUPERNAP (Las Vegas, NV)", "link": "http://careers.stackoverflow.com/jobs/96608/perl-software-engineer-las-vegas-nv-supernap", "location": "Las Vegas, NV", "hiringOrganization": "SUPERNAP"}}, {"geometry": {"type": "Point", "coordinates": [-0.12574, 51.50853]}, "type": "Feature", "properties": {"jobTitle": "Software Engineer - Team Leader at Ontoit Holdings Ltd (London, UK)", "link": "http://careers.stackoverflow.com/jobs/95694/software-engineer-team-leader-ontoit-holdings-ltd", "location": "London, UK", "hiringOrganization": "Ontoit Holdings Ltd"}}, {"geometry": {"type": "Point", "coordinates": [-1.32022, 51.82207]}, "type": "Feature", "properties": {"jobTitle": "Software Engineer  Python Specialist  Job Ref 19 at First Light Fusion Ltd (Begbroke, UK)", "link": "http://careers.stackoverflow.com/jobs/96159/software-engineer-python-specialist-job-ref-19-first-light-fusion-ltd", "location": "Begbroke, UK", "hiringOrganization": "First Light Fusion Ltd"}}, {"geometry": {"type": "Point", "coordinates": [-1.32022, 51.82207]}, "type": "Feature", "properties": {"jobTitle": "Unity Developer (m/f) at Dassault Systemes 3DExcite GmbH (M\u00c3\u00bcnchen, Deutschland)", "link": "http://careers.stackoverflow.com/jobs/92986/unity-developer-m-f-dassault-systemes-3dexcite", "location": "M\u00c3\u00bcnchen, Deutschland", "hiringOrganization": "Dassault Systemes 3DExcite GmbH"}}, {"geometry": {"type": "Point", "coordinates": [-71.05977, 42.35843]}, "type": "Feature", "properties": {"jobTitle": "Senior Software Engineer, Android Team at TripAdvisor (Boston, MA)", "link": "http://careers.stackoverflow.com/jobs/96176/senior-software-engineer-android-team-tripadvisor", "location": "Boston, MA", "hiringOrganization": "TripAdvisor"}}, {"geometry": {"type": "Point", "coordinates": [-71.05977, 42.35843]}, "type": "Feature", "properties": {"jobTitle": "Senior Software Engineer, iOS Team at TripAdvisor (Boston, MA)", "link": "http://careers.stackoverflow.com/jobs/96183/senior-software-engineer-ios-team-tripadvisor", "location": "Boston, MA", "hiringOrganization": "TripAdvisor"}}, {"geometry": {"type": "Point", "coordinates": [-71.05977, 42.35843]}, "type": "Feature", "properties": {"jobTitle": "Senior Software Engineer, Restaurants and Attractions Team at TripAdvisor (Boston, MA)", "link": "http://careers.stackoverflow.com/jobs/96156/senior-software-engineer-restaurants-and-tripadvisor", "location": "Boston, MA", "hiringOrganization": "TripAdvisor"}}, {"geometry": {"type": "Point", "coordinates": [8.64236, 49.30637]}, "type": "Feature", "properties": {"jobTitle": "Looking for New Talent! C++ (Associate) Developer for the SAP HANA database team at SAP SE (Walldorf, Deutschland)", "link": "http://careers.stackoverflow.com/jobs/96081/looking-for-new-talent-c-plus-plus-associate-developer-sap-se", "location": "Walldorf, Deutschland", "hiringOrganization": "SAP SE"}}, {"geometry": {"type": "Point", "coordinates": [-0.12574, 51.50853]}, "type": "Feature", "properties": {"jobTitle": "Software Engineer - Quality Assurance Developer at Ontoit Holdings Ltd (London, UK)", "link": "http://careers.stackoverflow.com/jobs/95693/software-engineer-quality-assurance-developer-ontoit-holdings-ltd", "location": "London, UK", "hiringOrganization": "Ontoit Holdings Ltd"}}, {"geometry": {"type": "Point", "coordinates": [-84.48387, 42.73698]}, "type": "Feature", "properties": {"jobTitle": "Back- End Web Developer at Michigan State University (East Lansing, MI)", "link": "http://careers.stackoverflow.com/jobs/95589/back-end-web-developer-michigan-state-university", "location": "East Lansing, MI", "hiringOrganization": "Michigan State University"}}, {"geometry": {"type": "Point", "coordinates": [-80.0831, 26.35869]}, "type": "Feature", "properties": {"jobTitle": "Cloud Systems Engineer at mParticle (Boca Raton, FL) (allows remote)", "link": "http://careers.stackoverflow.com/jobs/95499/cloud-systems-engineer-mparticle", "location": "Boca Raton, FL", "hiringOrganization": "mParticle"}}, {"geometry": {"type": "Point", "coordinates": [-4.69099, 54.22209]}, "type": "Feature", "properties": {"jobTitle": "Senior Quality Assurance Engineer at HBC Digital (NY, NY)", "link": "http://careers.stackoverflow.com/jobs/96483/senior-quality-assurance-engineer-hbc-digital", "location": "NY, NY", "hiringOrganization": "HBC Digital"}}, {"geometry": {"type": "Point", "coordinates": [2.15899, 41.38879]}, "type": "Feature", "properties": {"jobTitle": "Engineering Manager - Technical leader for a Music Software Company at BMAT Music Innovation (Barcelona, Spain)", "link": "http://careers.stackoverflow.com/jobs/95840/engineering-manager-technical-leader-for-a-bmat-music-innovation", "location": "Barcelona, Spain", "hiringOrganization": "BMAT Music Innovation"}}, {"geometry": {"type": "Point", "coordinates": [-83.92074, 35.96064]}, "type": "Feature", "properties": {"jobTitle": "SQL Developer-Dive in, Develop and Disect Databases! at Radio Systems Corporation (PetSafe) (Knoxville, TN)", "link": "http://careers.stackoverflow.com/jobs/92285/sql-developer-dive-in-develop-and-disect-radio-systems-corporation", "location": "Knoxville, TN", "hiringOrganization": "Radio Systems Corporation (PetSafe)"}}, {"geometry": {"type": "Point", "coordinates": [-71.05977, 42.35843]}, "type": "Feature", "properties": {"jobTitle": "Software Developer (1 - 5 years experience) - Multiple Openings at Power Advocate, Inc. (Boston, MA)", "link": "http://careers.stackoverflow.com/jobs/92944/software-developer-1-5-years-experience-power-advocate-inc", "location": "Boston, MA", "hiringOrganization": "Power Advocate, Inc."}}, {"geometry": {"type": "Point", "coordinates": [-122.03635, 37.36883]}, "type": "Feature", "properties": {"jobTitle": "Senior Software Engineer at 33Across (Sunnyvale, CA)", "link": "http://careers.stackoverflow.com/jobs/94636/senior-software-engineer-33across", "location": "Sunnyvale, CA", "hiringOrganization": "33Across"}}, {"geometry": {"type": "Point", "coordinates": [23.71622, 37.97945]}, "type": "Feature", "properties": {"jobTitle": "Full Stack Development Engineer at Groupon International (Athens, Greece)", "link": "http://careers.stackoverflow.com/jobs/92983/full-stack-development-engineer-groupon-international", "location": "Athens, Greece", "hiringOrganization": "Groupon International"}}, {"geometry": {"type": "Point", "coordinates": [-0.12574, 51.50853]}, "type": "Feature", "properties": {"jobTitle": "Software Engineer - NLP Developer at Ontoit Holdings Ltd (London, UK)", "link": "http://careers.stackoverflow.com/jobs/95692/software-engineer-nlp-developer-ontoit-holdings-ltd", "location": "London, UK", "hiringOrganization": "Ontoit Holdings Ltd"}}, {"geometry": {"type": "Point", "coordinates": [-122.32553, 37.56299]}, "type": "Feature", "properties": {"jobTitle": "Systems Engineer at ROBLOX (San Mateo, CA)", "link": "http://careers.stackoverflow.com/jobs/95614/systems-engineer-roblox", "location": "San Mateo, CA", "hiringOrganization": "ROBLOX"}}, {"geometry": {"type": "Point", "coordinates": [-84.60078, 39.01673]}, "type": "Feature", "properties": {"jobTitle": "Java Developer at Gap Inc. (Erlanger, KY)", "link": "http://careers.stackoverflow.com/jobs/89149/java-developer-gap-inc", "location": "Erlanger, KY", "hiringOrganization": "Gap Inc."}}, {"geometry": {"type": "Point", "coordinates": [-4.69099, 54.22209]}, "type": "Feature", "properties": {"jobTitle": "wanted: Senior Front End Engineer / bandmate at The Hackerati (NY, NY)", "link": "http://careers.stackoverflow.com/jobs/92356/wanted-senior-front-end-engineer-bandmate-the-hackerati", "location": "NY, NY", "hiringOrganization": "The Hackerati"}}, {"geometry": {"type": "Point", "coordinates": [-122.41942, 37.77493]}, "type": "Feature", "properties": {"jobTitle": "Site Reliability Engineer at Planet Labs (San Francisco, CA)", "link": "http://careers.stackoverflow.com/jobs/95520/site-reliability-engineer-planet-labs", "location": "San Francisco, CA", "hiringOrganization": "Planet Labs"}}, {"geometry": {"type": "Point", "coordinates": [8.64236, 49.30637]}, "type": "Feature", "properties": {"jobTitle": "C++ (Senior) Developer for the SAP HANA database team Job at SAP SE (Walldorf, Deutschland)", "link": "http://careers.stackoverflow.com/jobs/96079/c-plus-plus-senior-developer-for-the-sap-hana-database-sap-se", "location": "Walldorf, Deutschland", "hiringOrganization": "SAP SE"}}, {"geometry": {"type": "Point", "coordinates": [-97.51643, 35.46756]}, "type": "Feature", "properties": {"jobTitle": "Infrastructure Architect at Exaptive (Oklahoma City, OK)", "link": "http://careers.stackoverflow.com/jobs/91579/infrastructure-architect-exaptive", "location": "Oklahoma City, OK", "hiringOrganization": "Exaptive"}}, {"geometry": {"type": "Point", "coordinates": [-122.41942, 37.77493]}, "type": "Feature", "properties": {"jobTitle": "Senior Software Engineer at CreativeLive, Inc. (San Francisco, CA)", "link": "http://careers.stackoverflow.com/jobs/95534/senior-software-engineer-creativelive-inc", "location": "San Francisco, CA", "hiringOrganization": "CreativeLive, Inc."}}, {"geometry": {"type": "Point", "coordinates": [-73.14094, 40.92565]}, "type": "Feature", "properties": {"jobTitle": "Information Systems Application Specialist Full Time at Stony Brook University (Stony Brook, NY)", "link": "http://careers.stackoverflow.com/jobs/96294/information-systems-application-specialist-full-stony-brook-university", "location": "Stony Brook, NY", "hiringOrganization": "Stony Brook University"}}, {"geometry": {"type": "Point", "coordinates": [-4.69099, 54.22209]}, "type": "Feature", "properties": {"jobTitle": "ERP Applications Developer at Marist College (NY, NY)", "link": "http://careers.stackoverflow.com/jobs/95433/erp-applications-developer-marist-college", "location": "NY, NY", "hiringOrganization": "Marist College"}}, {"geometry": {"type": "Point", "coordinates": [-87.65005, 41.85003]}, "type": "Feature", "properties": {"jobTitle": "Senior Back End Engineer - Node.js / NoSQL at Unscene (Chicago, IL)", "link": "http://careers.stackoverflow.com/jobs/92638/senior-back-end-engineer-nodejs-nosql-unscene", "location": "Chicago, IL", "hiringOrganization": "Unscene"}}, {"geometry": {"type": "Point", "coordinates": [0.11667, 52.2]}, "type": "Feature", "properties": {"jobTitle": "Software Engineer (Java) at Featurespace (Cambridge, UK)", "link": "http://careers.stackoverflow.com/jobs/91505/software-engineer-java-featurespace", "location": "Cambridge, UK", "hiringOrganization": "Featurespace"}}, {"geometry": {"type": "Point", "coordinates": [-71.10561, 42.3751]}, "type": "Feature", "properties": {"jobTitle": "iOS Software Developer at Gecko Health Innovations (CareTRx) (Cambridge, MA)", "link": "http://careers.stackoverflow.com/jobs/92588/ios-software-developer-gecko-health-innovations", "location": "Cambridge, MA", "hiringOrganization": "Gecko Health Innovations (CareTRx)"}}, {"geometry": {"type": "Point", "coordinates": [-87.65005, 41.85003]}, "type": "Feature", "properties": {"jobTitle": "DevOps Engineer at Rewards Network (Chicago, IL)", "link": "http://careers.stackoverflow.com/jobs/94498/devops-engineer-rewards-network", "location": "Chicago, IL", "hiringOrganization": "Rewards Network"}}, {"geometry": {"type": "Point", "coordinates": [-121.17606, 38.67796]}, "type": "Feature", "properties": {"jobTitle": "Quality Software Tester at Panduit (Folsom, CA)", "link": "http://careers.stackoverflow.com/jobs/95086/quality-software-tester-panduit", "location": "Folsom, CA", "hiringOrganization": "Panduit"}}, {"geometry": {"type": "Point", "coordinates": [-77.03637, 38.89511]}, "type": "Feature", "properties": {"jobTitle": "Senior Software Engineer (Backend Web Developer) at U.S. House of Representatives (Washington, DC)", "link": "http://careers.stackoverflow.com/jobs/92940/senior-software-engineer-backend-web-developer-us-house-of-representatives", "location": "Washington, DC", "hiringOrganization": "U.S. House of Representatives"}}, {"geometry": {"type": "Point", "coordinates": [8.68417, 50.11552]}, "type": "Feature", "properties": {"jobTitle": "Senior Software Engineer at Crytek GmbH (Frankfurt am Main, Deutschland)", "link": "http://careers.stackoverflow.com/jobs/80174/senior-software-engineer-crytek-gmbh", "location": "Frankfurt am Main, Deutschland", "hiringOrganization": "Crytek GmbH"}}, {"geometry": {"type": "Point", "coordinates": [10.01534, 53.57532]}, "type": "Feature", "properties": {"jobTitle": "(Senior) Software Developer (w/m) at etracker GmbH (Hamburg, Deutschland)", "link": "http://careers.stackoverflow.com/jobs/91009/senior-software-developer-w-m-etracker-gmbh", "location": "Hamburg, Deutschland", "hiringOrganization": "etracker GmbH"}}, {"geometry": {"type": "Point", "coordinates": [-122.33207, 47.60621]}, "type": "Feature", "properties": {"jobTitle": "QA Engineer at Spoon.net (Seattle, WA)", "link": "http://careers.stackoverflow.com/jobs/93830/qa-engineer-spoonnet", "location": "Seattle, WA", "hiringOrganization": "Spoon.net"}}, {"geometry": {"type": "Point", "coordinates": [-111.89105, 40.76078]}, "type": "Feature", "properties": {"jobTitle": "Software Engineer at Premier, Inc. (Salt Lake City, UT)", "link": "http://careers.stackoverflow.com/jobs/90666/software-engineer-premier-inc", "location": "Salt Lake City, UT", "hiringOrganization": "Premier, Inc."}}, {"geometry": {"type": "Point", "coordinates": [-71.05977, 42.35843]}, "type": "Feature", "properties": {"jobTitle": "Software Engineer -- Personalization at TripAdvisor (Boston, MA)", "link": "http://careers.stackoverflow.com/jobs/96178/software-engineer-personalization-tripadvisor", "location": "Boston, MA", "hiringOrganization": "TripAdvisor"}}, {"geometry": {"type": "Point", "coordinates": [-1.54785, 53.79648]}, "type": "Feature", "properties": {"jobTitle": "Software Developer - Planning and Scheduling Systems at Tracsis plc (Leeds, UK)", "link": "http://careers.stackoverflow.com/jobs/96565/software-developer-planning-and-scheduling-tracsis-plc", "location": "Leeds, UK", "hiringOrganization": "Tracsis plc"}}, {"geometry": {"type": "Point", "coordinates": [-1.54785, 53.79648]}, "type": "Feature", "properties": {"jobTitle": "Internship Technology (m/f) at Westwing Home & Living (M\u00c3\u00bcnchen, Deutschland)", "link": "http://careers.stackoverflow.com/jobs/94428/internship-technology-m-f-westwing-home-living", "location": "M\u00c3\u00bcnchen, Deutschland", "hiringOrganization": "Westwing Home & Living"}}, {"geometry": {"type": "Point", "coordinates": [13.41053, 52.52437]}, "type": "Feature", "properties": {"jobTitle": "Java Frontend Developer (m/f) at Visual Meta GmbH (Berlin, Deutschland)", "link": "http://careers.stackoverflow.com/jobs/83965/java-frontend-developer-m-f-visual-meta-gmbh", "location": "Berlin, Deutschland", "hiringOrganization": "Visual Meta GmbH"}}, {"geometry": {"type": "Point", "coordinates": [-9.04889, 53.27194]}, "type": "Feature", "properties": {"jobTitle": "Junior Test Automation QA Engineer with Java at aspect (Galway, Ireland)", "link": "http://careers.stackoverflow.com/jobs/94039/junior-test-automation-qa-engineer-with-java-aspect", "location": "Galway, Ireland", "hiringOrganization": "aspect"}}, {"geometry": {"type": "Point", "coordinates": [-122.33207, 47.60621]}, "type": "Feature", "properties": {"jobTitle": "Software Engineer - Cleantech Startup at EnergySavvy (Seattle, WA)", "link": "http://careers.stackoverflow.com/jobs/74323/software-engineer-cleantech-startup-energysavvy", "location": "Seattle, WA", "hiringOrganization": "EnergySavvy"}}, {"geometry": {"type": "Point", "coordinates": [103.8, 1.36667]}, "type": "Feature", "properties": {"jobTitle": "Senior Full-Stack Ruby on Rails Developer at Aureso (Singapore) (allows remote)", "link": "http://careers.stackoverflow.com/jobs/75591/senior-full-stack-ruby-on-rails-developer-aureso", "location": "Singapore", "hiringOrganization": "Aureso"}}, {"geometry": {"type": "Point", "coordinates": [13.41053, 52.52437]}, "type": "Feature", "properties": {"jobTitle": "C++ Experienced Software Developer at think-cell Software GmbH (Berlin, Germany)", "link": "http://careers.stackoverflow.com/jobs/36832/c-plus-plus-experienced-software-developer-think-cell-software-gmbh", "location": "Berlin, Germany", "hiringOrganization": "think-cell Software GmbH"}}, {"geometry": {"type": "Point", "coordinates": [-74.00597, 40.71427]}, "type": "Feature", "properties": {"jobTitle": "Data Engineer at Namely (New York, NY)", "link": "http://careers.stackoverflow.com/jobs/96126/data-engineer-namely", "location": "New York, NY", "hiringOrganization": "Namely"}}, {"geometry": {"type": "Point", "coordinates": [-77.4311, 38.89428]}, "type": "Feature", "properties": {"jobTitle": "Hadoop Developer, Senior at Booz Allen Hamilton (Chantilly, VA)", "link": "http://careers.stackoverflow.com/jobs/96596/hadoop-developer-senior-booz-allen-hamilton", "location": "Chantilly, VA", "hiringOrganization": "Booz Allen Hamilton"}}, {"geometry": {"type": "Point", "coordinates": [-71.05977, 42.35843]}, "type": "Feature", "properties": {"jobTitle": "Senior Data/Database Software Engineer at TripAdvisor (Boston, MA)", "link": "http://careers.stackoverflow.com/jobs/96179/senior-data-database-software-engineer-tripadvisor", "location": "Boston, MA", "hiringOrganization": "TripAdvisor"}}, {"geometry": {"type": "Point", "coordinates": [-0.12574, 51.50853]}, "type": "Feature", "properties": {"jobTitle": "Senior Ruby / Python / Java Developers - Awarded Best Company to Work for 2015 ! at Simply Business (London, UK) (allows remote)", "link": "http://careers.stackoverflow.com/jobs/78405/senior-ruby-python-java-developers-awarded-simply-business", "location": "London, UK", "hiringOrganization": "Simply Business"}}, {"geometry": {"type": "Point", "coordinates": [-77.03637, 38.89511]}, "type": "Feature", "properties": {"jobTitle": "PHP Developer/Drupal 7 Developer at Society for Science & the Public (Washington, DC) (allows remote)", "link": "http://careers.stackoverflow.com/jobs/96825/php-developer-drupal-7-developer-society-for-science-the", "location": "Washington, DC", "hiringOrganization": "Society for Science & the Public"}}, {"geometry": {"type": "Point", "coordinates": [-77.04692, 38.80484]}, "type": "Feature", "properties": {"jobTitle": "System Administrator III at Institute for Defense Analyses (Alexandria, VA)", "link": "http://careers.stackoverflow.com/jobs/96306/system-administrator-iii-institute-for-defense-analyses", "location": "Alexandria, VA", "hiringOrganization": "Institute for Defense Analyses"}}, {"geometry": {"type": "Point", "coordinates": [-74.07764, 40.72816]}, "type": "Feature", "properties": {"jobTitle": "Software Development Manager at Amazon (Jersey City, NJ)", "link": "http://careers.stackoverflow.com/jobs/96691/software-development-manager-amazon", "location": "Jersey City, NJ", "hiringOrganization": "Amazon"}}, {"geometry": {"type": "Point", "coordinates": [-74.00597, 40.71427]}, "type": "Feature", "properties": {"jobTitle": "Lead / Sr. C# Full Stack Engineer (C# / MVC / SQL Server) at Medidata Solutions (New York, NY)", "link": "http://careers.stackoverflow.com/jobs/96803/lead-sr-c-sharp-full-stack-engineer-c-sharp-mvc-sql-medidata-solutions", "location": "New York, NY", "hiringOrganization": "Medidata Solutions"}}, {"geometry": {"type": "Point", "coordinates": [2.15899, 41.38879]}, "type": "Feature", "properties": {"jobTitle": "Technologist with C++ focus for high frequency trading firm at Xanadu Trading (Barcelona, Spain)", "link": "http://careers.stackoverflow.com/jobs/84004/technologist-with-c-plus-plus-focus-for-high-frequency-xanadu-trading", "location": "Barcelona, Spain", "hiringOrganization": "Xanadu Trading"}}, {"geometry": {"type": "Point", "coordinates": [-74.7139, 40.56305]}, "type": "Feature", "properties": {"jobTitle": "Lead Security Engineer at Merck & Company Inc. (Branchburg, NJ)", "link": "http://careers.stackoverflow.com/jobs/95379/lead-security-engineer-merck-company-inc", "location": "Branchburg, NJ", "hiringOrganization": "Merck & Company Inc."}}, {"geometry": {"type": "Point", "coordinates": [-117.82311, 33.66946]}, "type": "Feature", "properties": {"jobTitle": "Senior .NET Developer at Cie Digital Labs, LLC (Irvine, CA)", "link": "http://careers.stackoverflow.com/jobs/94710/senior-net-developer-cie-digital-labs-llc", "location": "Irvine, CA", "hiringOrganization": "Cie Digital Labs, LLC"}}, {"geometry": {"type": "Point", "coordinates": [-77.3861, 38.96955]}, "type": "Feature", "properties": {"jobTitle": "Senior Systems Developer at Time Warner Cable (Herndon, VA)", "link": "http://careers.stackoverflow.com/jobs/82388/senior-systems-developer-time-warner-cable", "location": "Herndon, VA", "hiringOrganization": "Time Warner Cable"}}, {"geometry": {"type": "Point", "coordinates": [23.32415, 42.69751]}, "type": "Feature", "properties": {"jobTitle": "Automation Quality Assurance Engineer at VMware Bulgaria (Sofia, Bulgaria)", "link": "http://careers.stackoverflow.com/jobs/94028/automation-quality-assurance-engineer-vmware-bulgaria", "location": "Sofia, Bulgaria", "hiringOrganization": "VMware Bulgaria"}}, {"geometry": {"type": "Point", "coordinates": [-74.00597, 40.71427]}, "type": "Feature", "properties": {"jobTitle": "Market Data C++ Developer at Bloomberg LP (New York, NY)", "link": "http://careers.stackoverflow.com/jobs/95717/market-data-c-plus-plus-developer-bloomberg-lp", "location": "New York, NY", "hiringOrganization": "Bloomberg LP"}}, {"geometry": {"type": "Point", "coordinates": [114.0683, 22.54554]}, "type": "Feature", "properties": {"jobTitle": "Data Platform Architect (Java) at OnePlus (Shenzhen Shi, China)", "link": "http://careers.stackoverflow.com/jobs/87865/data-platform-architect-java-oneplus", "location": "Shenzhen Shi, China", "hiringOrganization": "OnePlus"}}, {"geometry": {"type": "Point", "coordinates": [114.0683, 22.54554]}, "type": "Feature", "properties": {"jobTitle": "Global Head of Business Intelligence (m/f) - Munich, Germany at Westwing Home & Living (M\u00c3\u00bcnchen, Deutschland)", "link": "http://careers.stackoverflow.com/jobs/81194/global-head-of-business-intelligence-m-f-westwing-home-living", "location": "M\u00c3\u00bcnchen, Deutschland", "hiringOrganization": "Westwing Home & Living"}}, {"geometry": {"type": "Point", "coordinates": [-96.72972, 32.94818]}, "type": "Feature", "properties": {"jobTitle": "Senior 3D Software Engineer at E4D Technologies (Richardson, TX)", "link": "http://careers.stackoverflow.com/jobs/93598/senior-3d-software-engineer-e4d-technologies", "location": "Richardson, TX", "hiringOrganization": "E4D Technologies"}}, {"geometry": {"type": "Point", "coordinates": [13.41053, 52.52437]}, "type": "Feature", "properties": {"jobTitle": "Software Engineer -Voice Guidance,Text-to-Speech(TTS) at HERE, a Nokia company (Berlin, Germany)", "link": "http://careers.stackoverflow.com/jobs/96636/software-engineer-voice-guidance-text-to-here-a-nokia-company", "location": "Berlin, Germany", "hiringOrganization": "HERE, a Nokia company"}}, {"geometry": {"type": "Point", "coordinates": [-81.23304, 42.98339]}, "type": "Feature", "properties": {"jobTitle": "Senior Java Developer at Autodata Solutions (London, ON, Canada)", "link": "http://careers.stackoverflow.com/jobs/81218/senior-java-developer-autodata-solutions", "location": "London, ON, Canada", "hiringOrganization": "Autodata Solutions"}}, {"geometry": {"type": "Point", "coordinates": [-122.20068, 47.61038]}, "type": "Feature", "properties": {"jobTitle": "DevOps Engineer at RootMetrics (Bellevue, WA)", "link": "http://careers.stackoverflow.com/jobs/90863/devops-engineer-rootmetrics", "location": "Bellevue, WA", "hiringOrganization": "RootMetrics"}}, {"geometry": {"type": "Point", "coordinates": [-77.3411, 38.96872]}, "type": "Feature", "properties": {"jobTitle": "Software Engineer - UI/Front End at FireEye (Reston, VA)", "link": "http://careers.stackoverflow.com/jobs/94083/software-engineer-ui-front-end-fireeye", "location": "Reston, VA", "hiringOrganization": "FireEye"}}, {"geometry": {"type": "Point", "coordinates": [13.41053, 52.52437]}, "type": "Feature", "properties": {"jobTitle": "Frontend Engineer for Onefootball at Onefootball GmbH (Berlin, Deutschland)", "link": "http://careers.stackoverflow.com/jobs/84716/frontend-engineer-for-onefootball-onefootball-gmbh", "location": "Berlin, Deutschland", "hiringOrganization": "Onefootball GmbH"}}, {"geometry": {"type": "Point", "coordinates": [-6.49556, 53.36583]}, "type": "Feature", "properties": {"jobTitle": "IOT Software Engineer  Embedded Linux Development at Intel (Leixlip, Ireland)", "link": "http://careers.stackoverflow.com/jobs/96546/iot-software-engineer-embedded-linux-development-intel", "location": "Leixlip, Ireland", "hiringOrganization": "Intel"}}, {"geometry": {"type": "Point", "coordinates": [-74.00597, 40.71427]}, "type": "Feature", "properties": {"jobTitle": "Senior DevOps Engineer at Schr\u00c3\u00b6dinger (New York, NY)", "link": "http://careers.stackoverflow.com/jobs/88628/senior-devops-engineer-schr\u00c3\u00b6dinger", "location": "New York, NY", "hiringOrganization": "Schr\u00c3\u00b6dinger"}}, {"geometry": {"type": "Point", "coordinates": [-122.41942, 37.77493]}, "type": "Feature", "properties": {"jobTitle": "Backend Software Engineer at Planet Labs (San Francisco, CA)", "link": "http://careers.stackoverflow.com/jobs/93945/backend-software-engineer-planet-labs", "location": "San Francisco, CA", "hiringOrganization": "Planet Labs"}}, {"geometry": {"type": "Point", "coordinates": [13.41053, 52.52437]}, "type": "Feature", "properties": {"jobTitle": "Lead Engineer - Ruby, JavaScript, AWS at HERE, a Nokia company (Berlin, Germany)", "link": "http://careers.stackoverflow.com/jobs/92032/lead-engineer-ruby-javascript-aws-here-a-nokia-company", "location": "Berlin, Germany", "hiringOrganization": "HERE, a Nokia company"}}, {"geometry": {"type": "Point", "coordinates": [4.47298, 50.88365]}, "type": "Feature", "properties": {"jobTitle": "Software Engineer - Frontend Web Developer - Brussels, Belgium at Take Eat Easy (Zaventem, Belgium)", "link": "http://careers.stackoverflow.com/jobs/94940/software-engineer-frontend-web-developer-take-eat-easy", "location": "Zaventem, Belgium", "hiringOrganization": "Take Eat Easy"}}, {"geometry": {"type": "Point", "coordinates": [-74.17237, 40.73566]}, "type": "Feature", "properties": {"jobTitle": "J2EE Senior Developer at Prudential (Newark, NJ)", "link": "http://careers.stackoverflow.com/jobs/95424/j2ee-senior-developer-prudential", "location": "Newark, NJ", "hiringOrganization": "Prudential"}}, {"geometry": {"type": "Point", "coordinates": [-74.07764, 40.72816]}, "type": "Feature", "properties": {"jobTitle": "Infrastructure Engineer at KCG (Jersey City, NJ)", "link": "http://careers.stackoverflow.com/jobs/92609/infrastructure-engineer-kcg", "location": "Jersey City, NJ", "hiringOrganization": "KCG"}}, {"geometry": {"type": "Point", "coordinates": [-6.24889, 53.33306]}, "type": "Feature", "properties": {"jobTitle": "Python Software Developer to Help Build Our Betting Platform! at BetBright (Dublin, Ireland)", "link": "http://careers.stackoverflow.com/jobs/91813/python-software-developer-to-help-build-our-betbright", "location": "Dublin, Ireland", "hiringOrganization": "BetBright"}}, {"geometry": {"type": "Point", "coordinates": [-71.26895, 42.55843]}, "type": "Feature", "properties": {"jobTitle": "Software Engineer at Thales Communications, Inc (Billerica, MA)", "link": "http://careers.stackoverflow.com/jobs/95042/software-engineer-thales-communications-inc", "location": "Billerica, MA", "hiringOrganization": "Thales Communications, Inc"}}, {"geometry": {"type": "Point", "coordinates": [-118.24368, 34.05223]}, "type": "Feature", "properties": {"jobTitle": "Principal Engineer (Matching Engineering) at eHarmony (Los Angeles, CA)", "link": "http://careers.stackoverflow.com/jobs/95642/principal-engineer-matching-engineering-eharmony", "location": "Los Angeles, CA", "hiringOrganization": "eHarmony"}}, {"geometry": {"type": "Point", "coordinates": [-122.32553, 37.56299]}, "type": "Feature", "properties": {"jobTitle": "DevOps Engineer at ROBLOX (San Mateo, CA)", "link": "http://careers.stackoverflow.com/jobs/87463/devops-engineer-roblox", "location": "San Mateo, CA", "hiringOrganization": "ROBLOX"}}, {"geometry": {"type": "Point", "coordinates": [-74.06431, 40.34705]}, "type": "Feature", "properties": {"jobTitle": "Windows Systems Administrator at V12 Group (Red Bank, NJ)", "link": "http://careers.stackoverflow.com/jobs/77790/windows-systems-administrator-v12-group", "location": "Red Bank, NJ", "hiringOrganization": "V12 Group"}}, {"geometry": {"type": "Point", "coordinates": [-79.68292, 43.45011]}, "type": "Feature", "properties": {"jobTitle": "Senior Web Developer at Sheridan College (Oakville, ON, Canada)", "link": "http://careers.stackoverflow.com/jobs/96683/senior-web-developer-sheridan-college", "location": "Oakville, ON, Canada", "hiringOrganization": "Sheridan College"}}, {"geometry": {"type": "Point", "coordinates": [-122.33207, 47.60621]}, "type": "Feature", "properties": {"jobTitle": "Software Engineers at Apex Learning (Seattle, WA)", "link": "http://careers.stackoverflow.com/jobs/95203/software-engineers-apex-learning", "location": "Seattle, WA", "hiringOrganization": "Apex Learning"}}, {"geometry": {"type": "Point", "coordinates": [-86.5861, 34.73037]}, "type": "Feature", "properties": {"jobTitle": "Web Application Developer at Dito, LLC (Huntsville, AL) (allows remote)", "link": "http://careers.stackoverflow.com/jobs/94475/web-application-developer-dito-llc", "location": "Huntsville, AL", "hiringOrganization": "Dito, LLC"}}, {"geometry": {"type": "Point", "coordinates": [13.41053, 52.52437]}, "type": "Feature", "properties": {"jobTitle": "Build and Tools Tech Lead - DevOps, Jenkins, C++, Python at HERE, a Nokia company (Berlin, Germany)", "link": "http://careers.stackoverflow.com/jobs/92734/build-and-tools-tech-lead-devops-jenkins-c-plus-plus-here-a-nokia-company", "location": "Berlin, Germany", "hiringOrganization": "HERE, a Nokia company"}}, {"geometry": {"type": "Point", "coordinates": [-4.69099, 54.22209]}, "type": "Feature", "properties": {"jobTitle": "Release Engineer at Ipreo (NY, NY)", "link": "http://careers.stackoverflow.com/jobs/95434/release-engineer-ipreo", "location": "NY, NY", "hiringOrganization": "Ipreo"}}, {"geometry": {"type": "Point", "coordinates": [-122.28525, 37.83132]}, "type": "Feature", "properties": {"jobTitle": "Principal Software Engineer, Realtime Bidding at TubeMogul (Emeryville, CA)", "link": "http://careers.stackoverflow.com/jobs/90653/principal-software-engineer-realtime-bidding-tubemogul", "location": "Emeryville, CA", "hiringOrganization": "TubeMogul"}}, {"geometry": {"type": "Point", "coordinates": [-2.36172, 51.3751]}, "type": "Feature", "properties": {"jobTitle": "Android Developer at Actual Experience plc (Bath, UK)", "link": "http://careers.stackoverflow.com/jobs/83884/android-developer-actual-experience-plc", "location": "Bath, UK", "hiringOrganization": "Actual Experience plc"}}, {"geometry": {"type": "Point", "coordinates": [-2.36172, 51.3751]}, "type": "Feature", "properties": {"jobTitle": "Senior iOS Developer (m/f) at Dassault Systemes 3DExcite GmbH (M\u00c3\u00bcnchen, Germany)", "link": "http://careers.stackoverflow.com/jobs/92985/senior-ios-developer-m-f-dassault-systemes-3dexcite", "location": "M\u00c3\u00bcnchen, Germany", "hiringOrganization": "Dassault Systemes 3DExcite GmbH"}}, {"geometry": {"type": "Point", "coordinates": [-4.69099, 54.22209]}, "type": "Feature", "properties": {"jobTitle": "Product Architect at Ipreo (NY, NY)", "link": "http://careers.stackoverflow.com/jobs/94789/product-architect-ipreo", "location": "NY, NY", "hiringOrganization": "Ipreo"}}, {"geometry": {"type": "Point", "coordinates": [-79.4163, 43.70011]}, "type": "Feature", "properties": {"jobTitle": "Intermediate QA Analyst at Vena Solutions Inc. (Toronto, ON, Canada)", "link": "http://careers.stackoverflow.com/jobs/96774/intermediate-qa-analyst-vena-solutions-inc", "location": "Toronto, ON, Canada", "hiringOrganization": "Vena Solutions Inc."}}, {"geometry": {"type": "Point", "coordinates": [-75.69812, 45.41117]}, "type": "Feature", "properties": {"jobTitle": "Software Developer at Nanometrics (Ottawa, ON, Canada)", "link": "http://careers.stackoverflow.com/jobs/95991/software-developer-nanometrics", "location": "Ottawa, ON, Canada", "hiringOrganization": "Nanometrics"}}, {"geometry": {"type": "Point", "coordinates": [13.41053, 52.52437]}, "type": "Feature", "properties": {"jobTitle": "Release Engineer at HERE, a Nokia company (Berlin, Germany)", "link": "http://careers.stackoverflow.com/jobs/94778/release-engineer-here-a-nokia-company", "location": "Berlin, Germany", "hiringOrganization": "HERE, a Nokia company"}}, {"geometry": {"type": "Point", "coordinates": [4.88969, 52.37403]}, "type": "Feature", "properties": {"jobTitle": "Cloud Systems Engineer at Cloudreach (Amsterdam, Netherlands)", "link": "http://careers.stackoverflow.com/jobs/85774/cloud-systems-engineer-cloudreach", "location": "Amsterdam, Netherlands", "hiringOrganization": "Cloudreach"}}, {"geometry": {"type": "Point", "coordinates": [-77.40108, 35.52905]}, "type": "Feature", "properties": {"jobTitle": "Web-Based Application Developer - Help Eliminate Bad Debt for our Clients at ONLINE Information Services, Inc. (Winterville, NC)", "link": "http://careers.stackoverflow.com/jobs/93065/web-based-application-developer-help-eliminate-online-information-services", "location": "Winterville, NC", "hiringOrganization": "ONLINE Information Services, Inc."}}, {"geometry": {"type": "Point", "coordinates": [-71.10561, 42.3751]}, "type": "Feature", "properties": {"jobTitle": "React Front End Developer at KoBoToolbox at the Harvard Humanitarian Initiative (Cambridge, MA) (allows remote)", "link": "http://careers.stackoverflow.com/jobs/95186/react-front-end-developer-kobotoolbox-at-the-harvard", "location": "Cambridge, MA", "hiringOrganization": "KoBoToolbox at the Harvard Humanitarian Initiative"}}, {"geometry": {"type": "Point", "coordinates": [-0.12574, 51.50853]}, "type": "Feature", "properties": {"jobTitle": "Front End Developer / Designer  > Global Platform for Local Culture at The Culture Trip (London, UK)", "link": "http://careers.stackoverflow.com/jobs/44733/front-end-developer-designer-global-platform-the-culture-trip", "location": "London, UK", "hiringOrganization": "The Culture Trip"}}, {"geometry": {"type": "Point", "coordinates": [26.0, 64.0]},